,sale_price,address,lat,lon,date_time,year,rel_to_mean_price,rel_to_median_price,tmstmp,date,log_price
0,10990,"898 PROSPECT, Buffalo",42.9098692,-78.89897479999998,1990/02/01 00:00,1990,0.15546480298125173,0.1998181818181818,633848400.0,02/01/90,9.304741047397666
1,72000,"48 ST FLORIAN, Buffalo",42.94546649999999,-78.88618579999998,1990/02/01 00:00,1990,1.0185137228981005,1.3090909090909093,633848400.0,02/01/90,11.184421397998193
2,67485,"21 EUGENE, Buffalo",42.95693199999999,-78.87321299999998,1990/02/01 00:00,1990,0.9546444248580322,1.227,633848400.0,02/01/90,11.119660629943382
3,335074,"161 GRANT, Buffalo",42.9181529,-78.890339,1990/02/01 00:00,1990,4.739964822032753,6.092254545454545,633848400.0,02/01/90,12.722106681935768
4,410000,"731 MAIN, Buffalo",42.8938065,-78.8713276,1990/02/01 00:00,1990,5.799869810947517,7.454545454545454,633848400.0,02/01/90,12.92391243868049
5,150000,"39 SEATTLE, Buffalo",42.957341,-78.83492799999998,1990/02/01 00:00,1990,2.1219035893710427,2.727272727272727,633848400.0,02/01/90,11.918390573078392
6,112000,"434 HUNTINGTON, Buffalo",42.945946,-78.848433,1990/02/01 00:00,1990,1.584354680063712,2.036363636363636,633848400.0,02/01/90,11.626254150277232
7,46900,"32 HAMLIN, Buffalo",42.91792570000001,-78.85089350000001,1990/02/01 00:00,1990,0.6634485222766794,0.8527272727272728,633848400.0,02/01/90,10.75577295443437
8,61740,"16 JOHN PAUL COURT, Buffalo",42.8845313,-78.8412062,1990/02/01 00:00,1990,0.8733755173851212,1.1225454545454543,633848400.0,02/01/90,11.03068729805615
9,66500,"17 DEERFIELD, Buffalo",42.9228842,-78.82647390000002,1990/02/01 00:00,1990,0.9407105912878291,1.2090909090909092,633848400.0,02/01/90,11.104957226643945
10,19000,"909 SMITH, Buffalo",42.8863429,-78.843733,1990/02/01 00:00,1990,0.26877445465366545,0.34545454545454546,633848400.0,02/01/90,9.852194258148577
11,67000,"88 ENGLEWOOD, Buffalo",42.954206,-78.82682790000001,1990/02/01 00:00,1990,0.9477836032523992,1.2181818181818185,633848400.0,02/01/90,11.112447898373103
12,10600,"132 SHUMWAY, Buffalo",42.886995,-78.845288,1990/02/01 00:00,1990,0.14994785364888702,0.19272727272727272,633848400.0,02/01/90,9.268609280100158
13,62000,"27 JOHN PAUL COURT, Buffalo",42.88419320000001,-78.84174940000003,1990/02/01 00:00,1990,0.8770534836066978,1.1272727272727272,633848400.0,02/01/90,11.03488966402723
14,50000,"38 BLAKE, Buffalo",42.9148706,-78.81111990000002,1990/02/01 00:00,1990,0.7073011964570143,0.9090909090909092,633848400.0,02/01/90,10.819778284410283
15,33000,"14 ROMMEL, Buffalo",42.8959522,-78.8256554,1990/02/01 00:00,1990,0.4668187896616294,0.6,633848400.0,02/01/90,10.404262840448617
16,17000,"468 SYCAMORE, Buffalo",42.893287,-78.85369299999998,1990/02/01 00:00,1990,0.24048240679538485,0.3090909090909091,633848400.0,02/01/90,9.740968623038354
17,69900,"40 HARRIETT, Buffalo",42.92386810000001,-78.80368539999998,1990/02/01 00:00,1990,0.9888070726469059,1.2709090909090908,633848400.0,02/01/90,11.154820928221902
18,22000,"441 KOONS, Buffalo",42.908226,-78.82082799999998,1990/02/01 00:00,1990,0.3112125264410863,0.4,633848400.0,02/01/90,9.998797732340453
19,24500,"1948 GENESEE, Buffalo",42.9142529,-78.8101906,1990/02/01 00:00,1990,0.34657758626393703,0.44545454545454544,633848400.0,02/01/90,10.106428396532818
20,18000,"191 MILLER, Buffalo",42.901067,-78.823454,1990/02/01 00:00,1990,0.2546284307245251,0.3272727272727273,633848400.0,02/01/90,9.798127036878302
21,86500,"259 ASHLAND, Buffalo",42.9119418,-78.8784032,1990/02/01 00:00,1990,1.2236310698706347,1.5727272727272728,633848400.0,02/01/90,11.36789969291997
22,32000,"49 KERNS, Buffalo",42.9168524,-78.81178359999998,1990/02/01 00:00,1990,0.4526727657324892,0.5818181818181818,633848400.0,02/01/90,10.373491181781864
23,24500,"363 MOSELLE, Buffalo",42.913548,-78.823966,1990/02/01 00:00,1990,0.34657758626393703,0.44545454545454544,633848400.0,02/01/90,10.106428396532818
24,39950,"141 HAGEN, Buffalo",42.9188808,-78.8075958,1990/02/01 00:00,1990,0.5651336559691544,0.7263636363636363,633848400.0,02/01/90,10.595383951194421
25,39900,"40 HAZELWOOD, Buffalo",42.9202343,-78.80607509999999,1990/02/01 00:00,1990,0.5644263547726974,0.7254545454545455,633848400.0,02/01/90,10.594131602877955
26,17000,"595 GOODYEAR, Buffalo",42.91239700000001,-78.822009,1990/02/01 00:00,1990,0.24048240679538485,0.3090909090909091,633848400.0,02/01/90,9.740968623038354
27,110000,"135 LOVERING, Buffalo",42.951652,-78.862741,1990/02/01 00:00,1990,1.5560626322054314,2.0,633848400.0,02/01/90,11.608235644774552
28,35000,"228 THOMPSON, Buffalo",42.9402024,-78.90128490000002,1990/02/01 00:00,1990,0.49511083751991,0.6363636363636364,633848400.0,02/01/90,10.46310334047155
29,193000,"1119 DELAWARE, Buffalo",42.914246,-78.868802,1990/02/01 00:00,1990,2.730182618324075,3.5090909090909093,633848400.0,02/01/90,12.170445467887022
30,27000,"169 TIMON, Buffalo",42.9049239,-78.8498875,1990/02/01 00:00,1990,0.3819426460867877,0.4909090909090909,633848400.0,02/01/90,10.203592144986466
31,21000,"214 PEACH, Buffalo",42.900877,-78.857033,1990/02/01 00:00,1990,0.29706650251194605,0.3818181818181817,633848400.0,02/01/90,9.95227771670556
32,96500,"150 WESLEY, Buffalo",42.9471693,-78.8373574,1990/02/01 00:00,1990,1.3650913091620376,1.7545454545454546,633848400.0,02/01/90,11.477298287327077
33,75000,"359 DOAT, Buffalo",42.909581,-78.8075908,1990/02/01 00:00,1990,1.0609517946855214,1.3636363636363635,633848400.0,02/01/90,11.225243392518447
34,22000,"158 WALDEN, Buffalo",42.903816,-78.83028,1990/02/01 00:00,1990,0.3112125264410863,0.4,633848400.0,02/01/90,9.998797732340453
35,22000,"358 GOODYEAR, Buffalo",42.905901,-78.82248799999998,1990/02/01 00:00,1990,0.3112125264410863,0.4,633848400.0,02/01/90,9.998797732340453
36,22900,"275 LOEPERE, Buffalo",42.90166929999999,-78.83427499999998,1990/02/01 00:00,1990,0.3239439479773126,0.4163636363636364,633848400.0,02/01/90,10.03889218954233
37,19500,"1269 SYCAMORE, Buffalo",42.90175199999999,-78.82546099999998,1990/02/01 00:00,1990,0.2758474666182356,0.3545454545454545,633848400.0,02/01/90,9.878169744551839
38,72500,"460 MICHIGAN, Buffalo",42.885025,-78.868332,1990/02/01 00:00,1990,1.0255867348626708,1.318181818181818,633848400.0,02/01/90,11.191341840842766
39,13000,"917 GENESEE, Buffalo",42.9001685,-78.84386040000003,1990/02/01 00:00,1990,0.1838983110788237,0.2363636363636364,633848400.0,02/01/90,9.472704636443673
40,58000,"58 FISHER, Buffalo",42.9193519,-78.8014173,1990/02/01 00:00,1990,0.8204693878901366,1.0545454545454545,633848400.0,02/01/90,10.968198289528557
41,30000,"124 DURHAM, Buffalo",42.92571359999999,-78.8282304,1990/02/01 00:00,1990,0.42438071787420856,0.5454545454545454,633848400.0,02/01/90,10.308952660644293
42,178000,"37 BIDWELL, Buffalo",42.9211575,-78.87964140000003,1990/02/01 00:00,1990,2.5179922593869706,3.2363636363636363,633848400.0,02/01/90,12.089538829274222
43,70500,"38 LEONARD, Buffalo",42.9384644,-78.80390659999998,1990/02/01 00:00,1990,0.9972946870043902,1.2818181818181815,633848400.0,02/01/90,11.16336798880036
44,78000,"38 MERIDEN, Buffalo",42.8499723,-78.81262439999998,1990/02/01 00:00,1990,1.1033898664729422,1.4181818181818182,633848400.0,02/01/90,11.26446410567173
45,61900,"167 ORLEANS, Buffalo",42.9386714,-78.8063849,1990/02/01 00:00,1990,0.8756388812137837,1.1254545454545457,633848400.0,02/01/90,11.033275458672687
46,73000,"101 WHITFIELD, Buffalo",42.8434547,-78.8197928,1990/02/01 00:00,1990,1.032659746827241,1.3272727272727274,633848400.0,02/01/90,11.198214720130528
47,38500,"42 ALICE, Buffalo",42.9390531,-78.8077788,1990/02/01 00:00,1990,0.544621921271901,0.7,633848400.0,02/01/90,10.558413520275876
48,50900,"102 LADNER, Buffalo",42.8419383,-78.82846490000001,1990/02/01 00:00,1990,0.7200326179932406,0.9254545454545454,633848400.0,02/01/90,10.837618202538614
49,43405,"474 NORFOLK, Buffalo",42.9281198,-78.8197485,1990/02/01 00:00,1990,0.6140081686443342,0.7891818181818182,633848400.0,02/01/90,10.678329920825908
50,80000,"105 WINSTON, Buffalo",42.9504968,-78.83987909999998,1990/02/01 00:00,1990,1.131681914331223,1.4545454545454546,633848400.0,02/01/90,11.289781913656018
51,58200,"23 JOHN PAUL COURT, Buffalo",42.8843203,-78.84173709999997,1990/02/01 00:00,1990,0.8232985926759646,1.058181818181818,633848400.0,02/01/90,10.97164063371953
52,62900,"77 PAUL, Buffalo",42.8587879,-78.81465990000002,1990/02/01 00:00,1990,0.8897849051429241,1.1436363636363636,633848400.0,02/01/90,11.049301442688533
53,80000,"2 STONEBORO, Buffalo",42.9380824,-78.83680439999998,1990/02/01 00:00,1990,1.131681914331223,1.4545454545454546,633848400.0,02/01/90,11.289781913656018
54,55000,"70 STRATHMORE, Buffalo",42.8499281,-78.81713789999998,1990/02/01 00:00,1990,0.7780313161027157,1.0,633848400.0,02/01/90,10.915088464214607
55,75000,"77 MILFORD, Buffalo",42.8535028,-78.81523519999998,1990/02/01 00:00,1990,1.0609517946855214,1.3636363636363635,633848400.0,02/01/90,11.225243392518447
56,50000,"403 CUMBERLAND, Buffalo",42.85035560000001,-78.8123146,1990/02/01 00:00,1990,0.7073011964570143,0.9090909090909092,633848400.0,02/01/90,10.819778284410283
57,150000,"38 CLARENDON, Buffalo",42.9270527,-78.8705978,1990/02/01 00:00,1990,2.1219035893710427,2.727272727272727,633848400.0,02/01/90,11.918390573078392
58,86000,"775 TIFFT, Buffalo",42.84677569999999,-78.8305886,1990/02/01 00:00,1990,1.2165580579060646,1.5636363636363635,633848400.0,02/01/90,11.362102575235644
59,39900,"112 FENNIMORE, Buffalo",42.9382731,-78.80691589999998,1990/02/01 00:00,1990,0.5644263547726974,0.7254545454545455,633848400.0,02/01/90,10.594131602877955
60,39900,"361 HUMBOLDT, Buffalo",42.9243603,-78.8460853,1990/02/01 00:00,1990,0.5644263547726974,0.7254545454545455,633848400.0,02/01/90,10.594131602877955
61,48000,"151 LONGNECKER, Buffalo",42.8889438,-78.8083135,1990/02/01 00:00,1990,0.6790091485987337,0.8727272727272727,633848400.0,02/01/90,10.778956289890028
62,98500,"75 DEPEW EAST, Buffalo",42.9416421,-78.8327122,1990/02/01 00:00,1990,1.3933833570203182,1.790909090909091,633848400.0,02/01/90,11.49781182716018
63,112000,"26 FORDHAM, Buffalo",42.9384765,-78.87344909999999,1990/02/01 00:00,1990,1.584354680063712,2.036363636363636,633848400.0,02/01/90,11.626254150277232
64,49900,"221 HUTCHINSON, Buffalo",42.93793820000001,-78.81532370000002,1990/02/01 00:00,1990,0.7058865940641003,0.9072727272727272,633848400.0,02/01/90,10.81777628173961
65,65000,"763 ABBOTT, Buffalo",42.8433779,-78.80949240000002,1990/02/01 00:00,1990,0.9194915553941184,1.181818181818182,633848400.0,02/01/90,11.082142548877775
66,36900,"357 GOLD, Buffalo",42.8946106,-78.8046147,1990/02/01 00:00,1990,0.5219882829852766,0.6709090909090909,633848400.0,02/01/90,10.515966830028619
67,34000,"55 COLFAX, Buffalo",42.9307323,-78.8269631,1990/02/01 00:00,1990,0.4809648135907697,0.6181818181818182,633848400.0,02/01/90,10.4341158035983
68,45000,"98 WESTON, Buffalo",42.928521,-78.8101021,1990/02/01 00:00,1990,0.6365710768113129,0.8181818181818182,633848400.0,02/01/90,10.714417768752456
69,40100,"313 LONGNECKER, Buffalo",42.8934753,-78.80827790000002,1990/02/01 00:00,1990,0.5672555595585255,0.7290909090909091,633848400.0,02/01/90,10.599131613294661
70,284739,"422 ONTARIO, Buffalo",42.9554649,-78.898814,1990/02/01 00:00,1990,4.027924707559476,5.177072727272726,633848400.0,02/01/90,12.559328250185732
71,41000,"525 DARTMOUTH, Buffalo",42.94323920000001,-78.80510149999998,1990/02/01 00:00,1990,0.5799869810947518,0.7454545454545455,633848400.0,02/01/90,10.621327345686446
72,64000,"177 SHEFFIELD, Buffalo",42.8425946,-78.816983,1990/02/01 00:00,1990,0.9053455314649784,1.1636363636363636,633848400.0,02/01/90,11.06663836234181
73,54300,"117 HENRIETTA, Buffalo",42.9578506,-78.90168369999998,1990/02/01 00:00,1990,0.7681290993523175,0.9872727272727272,633848400.0,02/01/90,10.902279505922026
74,72000,"32 RUSPIN, Buffalo",42.9317804,-78.8123897,1990/02/01 00:00,1990,1.0185137228981005,1.3090909090909093,633848400.0,02/01/90,11.184421397998193
75,56000,"140 EASTON, Buffalo",42.9277671,-78.8085533,1990/02/01 00:00,1990,0.792177340031856,1.018181818181818,633848400.0,02/01/90,10.933106969717286
76,14000,"393 FULTON, Buffalo",42.8710949,-78.856673,1990/02/01 00:00,1990,0.198044335007964,0.2545454545454545,633848400.0,02/01/90,9.546812608597396
77,45000,"2992 BAILEY, Buffalo",42.9362211,-78.8139077,1990/02/01 00:00,1990,0.6365710768113129,0.8181818181818182,633848400.0,02/01/90,10.714417768752456
78,233200,"265 GERMANIA, Buffalo",42.85308269999999,-78.83445970000002,1990/02/01 00:00,1990,3.2988527802755145,4.24,633848400.0,02/01/90,12.359651733458474
79,55500,"281 CABLE, Buffalo",42.87269089999999,-78.80651759999998,1990/02/01 00:00,1990,0.7851043280672859,1.009090909090909,633848400.0,02/01/90,10.924138299734526
80,218475,"1779 CLINTON, Buffalo",42.87162379999999,-78.8108441,1990/02/01 00:00,1990,3.090552577918924,3.9722727272727267,633848400.0,02/01/90,12.294426870495744
81,80000,"1923 SENECA, Buffalo",42.8584539,-78.81370249999998,1990/02/01 00:00,1990,1.131681914331223,1.4545454545454546,633848400.0,02/01/90,11.289781913656018
82,65000,"511 HEWITT, Buffalo",42.9425049,-78.80566529999999,1990/02/01 00:00,1990,0.9194915553941184,1.181818181818182,633848400.0,02/01/90,11.082142548877775
83,55000,"91 ROESCH, Buffalo",42.95841220000001,-78.90574759999998,1990/02/01 00:00,1990,0.7780313161027157,1.0,633848400.0,02/01/90,10.915088464214607
84,54900,"562 MARILLA, Buffalo",42.837428,-78.819532,1990/02/01 00:00,1990,0.7766167137098017,0.9981818181818182,633848400.0,02/01/90,10.913268627497622
85,25000,"77 LEMON, Buffalo",42.8964468,-78.85993069999998,1990/03/01 00:00,1990,0.35365059822850714,0.4545454545454545,636267600.0,03/01/90,10.126631103850338
86,69000,"849 COLUMBUS PKWY, Buffalo",42.9064861,-78.8983006,1990/03/01 00:00,1990,0.9760756511106796,1.2545454545454546,636267600.0,03/01/90,11.141861783579396
87,123000,"83 UNIVERSITY AVE, Buffalo",42.9555091,-78.82519079999999,1990/03/01 00:00,1990,1.7399609432842549,2.2363636363636363,636267600.0,03/01/90,11.719939634354555
88,55000,"254 ROUNDS, Buffalo",42.94753240000001,-78.80408359999998,1990/03/01 00:00,1990,0.7780313161027157,1.0,636267600.0,03/01/90,10.915088464214607
89,38000,"35 COPSEWOOD, Buffalo",42.9357833,-78.81594319999998,1990/03/01 00:00,1990,0.5375489093073309,0.6909090909090909,636267600.0,03/01/90,10.545341438708522
90,37500,"590 WYOMING, Buffalo",42.9308115,-78.82457140000002,1990/03/01 00:00,1990,0.5304758973427607,0.6818181818181818,636267600.0,03/01/90,10.532096211958502
91,73500,"140 LEONARD, Buffalo",42.9411396,-78.8039951,1990/03/01 00:00,1990,1.0397327587918108,1.3363636363636364,636267600.0,03/01/90,11.205040685200927
92,25000,"72 LOCUST, Buffalo",42.89583029999999,-78.86168620000002,1990/03/01 00:00,1990,0.35365059822850714,0.4545454545454545,636267600.0,03/01/90,10.126631103850338
93,25000,"140 MULBERRY, Buffalo",42.89727020000001,-78.86224949999998,1990/03/01 00:00,1990,0.35365059822850714,0.4545454545454545,636267600.0,03/01/90,10.126631103850338
94,25000,"75 ORANGE, Buffalo",42.8968948,-78.85872950000002,1990/03/01 00:00,1990,0.35365059822850714,0.4545454545454545,636267600.0,03/01/90,10.126631103850338
95,85000,"25 DELANEY, Buffalo",42.9568448,-78.8528843,1990/03/01 00:00,1990,1.2024120339769242,1.5454545454545454,636267600.0,03/01/90,11.350406535472453
96,19000,"336 ROTHER, Buffalo",42.903154,-78.83201,1990/03/01 00:00,1990,0.26877445465366545,0.34545454545454546,636267600.0,03/01/90,9.852194258148577
97,22000,"228 TITUS, Buffalo",42.9022957,-78.8229896,1990/03/01 00:00,1990,0.3112125264410863,0.4,636267600.0,03/01/90,9.998797732340453
98,14000,"823 GENESEE, Buffalo",42.8989936,-78.84655599999998,1990/03/01 00:00,1990,0.198044335007964,0.2545454545454545,636267600.0,03/01/90,9.546812608597396
99,54000,"34 HARRIETT, Buffalo",42.9236174,-78.803619,1990/03/01 00:00,1990,0.7638852921735755,0.9818181818181818,636267600.0,03/01/90,10.896739325546411
100,253000,"708 LAFAYETTE AVE, Buffalo",42.9207289,-78.872013,1990/03/01 00:00,1990,3.5789440540724917,4.6,636267600.0,03/01/90,12.441144767709657
101,71500,"183 KAY, Buffalo",42.9397194,-78.80178240000002,1990/03/01 00:00,1990,1.0114407109335304,1.3,636267600.0,03/01/90,11.177452728682098
102,25000,"356 CARLTON, Buffalo",42.8986114,-78.8551628,1990/03/01 00:00,1990,0.35365059822850714,0.4545454545454545,636267600.0,03/01/90,10.126631103850338
103,38000,"313 LANDON, Buffalo",42.909793,-78.84219300000002,1990/03/01 00:00,1990,0.5375489093073309,0.6909090909090909,636267600.0,03/01/90,10.545341438708522
104,94570,"372 BRYANT, Buffalo",42.90861,-78.880911,1990/03/01 00:00,1990,1.3377894829787969,1.7194545454545451,636267600.0,03/01/90,11.457095580009558
105,15000,"610 HOPKINS, Buffalo",42.854163,-78.832555,1990/03/01 00:00,1990,0.21219035893710428,0.2727272727272727,636267600.0,03/01/90,9.615805480084347
106,77000,"71 NORTHRUP PL, Buffalo",42.94964210000001,-78.82395190000003,1990/03/01 00:00,1990,1.089243842543802,1.4,636267600.0,03/01/90,11.251560700835821
107,42000,"92 CONNELLY, Buffalo",42.9298651,-78.81496969999998,1990/03/01 00:00,1990,0.5941330050238921,0.7636363636363637,636267600.0,03/01/90,10.645424897265505
108,77000,"298 WEIMAR, Buffalo",42.872868200000006,-78.80793369999998,1990/03/01 00:00,1990,1.089243842543802,1.4,636267600.0,03/01/90,11.251560700835821
109,53000,"26 PROGRESSIVE, Buffalo",42.948288700000006,-78.90197009999999,1990/03/01 00:00,1990,0.7497392682444352,0.9636363636363636,636267600.0,03/01/90,10.87804719253426
110,15600,"111 STANTON, Buffalo",42.8865166,-78.8457184,1990/03/01 00:00,1990,0.22067797329458846,0.28363636363636363,636267600.0,03/01/90,9.655026193237628
111,88000,"392 CUMBERLAND, Buffalo",42.85086920000001,-78.8121819,1990/03/01 00:00,1990,1.2448501057643448,1.6,636267600.0,03/01/90,11.385092093460344
112,52000,"2409 SENECA, Buffalo",42.8483933,-78.80199540000002,1990/03/01 00:00,1990,0.7355932443152948,0.9454545454545454,636267600.0,03/01/90,10.858998997563564
113,32500,"291 OGDEN SOUTH, Buffalo",42.86915800000001,-78.801784,1990/03/01 00:00,1990,0.4597457776970593,0.5909090909090909,636267600.0,03/01/90,10.388995368317829
114,25000,"81 ORANGE, Buffalo",42.897014,-78.85862540000002,1990/03/01 00:00,1990,0.35365059822850714,0.4545454545454545,636267600.0,03/01/90,10.126631103850338
115,25000,"127 MAPLE, Buffalo",42.8962217,-78.8629945,1990/03/01 00:00,1990,0.35365059822850714,0.4545454545454545,636267600.0,03/01/90,10.126631103850338
116,98000,"749 MCKINLEY PKWY, Buffalo",42.8520409,-78.8206335,1990/03/01 00:00,1990,1.386310345055748,1.7818181818181815,636267600.0,03/01/90,11.49272275765271
117,52000,"152 DEWITT, Buffalo",42.921151,-78.895562,1990/03/01 00:00,1990,0.7355932443152948,0.9454545454545454,636267600.0,03/01/90,10.858998997563564
118,30000,"155 FIFTEENTH, Buffalo",42.90906200000001,-78.887237,1990/03/01 00:00,1990,0.42438071787420856,0.5454545454545454,636267600.0,03/01/90,10.308952660644293
119,28000,"530 MOSELLE, Buffalo",42.9181217,-78.8246599,1990/03/01 00:00,1990,0.396088670015928,0.509090909090909,636267600.0,03/01/90,10.239959789157341
120,92000,"484 DOWNING, Buffalo",42.8347668,-78.80572099999998,1990/03/01 00:00,1990,1.3014342014809064,1.6727272727272726,636267600.0,03/01/90,11.429543856031177
121,15000,"234 BOX, Buffalo",42.91149799999999,-78.830445,1990/03/01 00:00,1990,0.21219035893710428,0.2727272727272727,636267600.0,03/01/90,9.615805480084347
122,25000,"34 PEACH, Buffalo",42.8962679,-78.85851880000001,1990/03/01 00:00,1990,0.35365059822850714,0.4545454545454545,636267600.0,03/01/90,10.126631103850338
123,50000,"293 FARGO, Buffalo",42.9047885,-78.89161329999997,1990/04/01 00:00,1990,0.7073011964570143,0.9090909090909092,638946000.0,04/01/90,10.819778284410283
124,87258,"332 SYCAMORE, Buffalo",42.8919283,-78.8581224,1990/04/01 00:00,1990,1.2343537560089228,1.5865090909090909,638946000.0,04/01/90,11.376624526405765
125,153000,"527 NORWOOD, Buffalo",42.9193509,-78.87999509999999,1990/04/01 00:00,1990,2.1643416611584643,2.7818181818181817,638946000.0,04/01/90,11.938193200374572
126,45000,"152 SCHILLER, Buffalo",42.88912120000001,-78.8014615,1990/04/01 00:00,1990,0.6365710768113129,0.8181818181818182,638946000.0,04/01/90,10.714417768752456
127,105000,"15 CLAREMONT, Buffalo",42.922594,-78.87972979999998,1990/04/01 00:00,1990,1.48533251255973,1.9090909090909087,638946000.0,04/01/90,11.56171562913966
128,75000,"46 NORTHRUP WEST, Buffalo",42.95066129999999,-78.8281994,1990/04/01 00:00,1990,1.0609517946855214,1.3636363636363635,638946000.0,04/01/90,11.225243392518447
129,59000,"26 SANDROCK, Buffalo",42.947206,-78.90395199999998,1990/04/01 00:00,1990,0.8346154118192769,1.0727272727272728,638946000.0,04/01/90,10.985292722887856
130,67000,"63 WRIGHT, Buffalo",42.9245512,-78.7995696,1990/04/01 00:00,1990,0.9477836032523992,1.2181818181818185,638946000.0,04/01/90,11.112447898373103
131,40000,"1295 DELAVAN EAST, Buffalo",42.92246309999999,-78.808863,1990/04/01 00:00,1990,0.5658409571656114,0.7272727272727273,638946000.0,04/01/90,10.596634733096073
132,55000,"105 LOCKWOOD, Buffalo",42.843929,-78.82826299999998,1990/04/01 00:00,1990,0.7780313161027157,1.0,638946000.0,04/01/90,10.915088464214607
133,54500,"55 LAFAYETTE AVE, Buffalo",42.91984,-78.896575,1990/04/01 00:00,1990,0.7709583041381456,0.990909090909091,638946000.0,04/01/90,10.905955980651335
134,29000,"49 HUMBER, Buffalo",42.9238937,-78.82527929999998,1990/04/01 00:00,1990,0.4102346939450683,0.5272727272727272,638946000.0,04/01/90,10.275051108968611
135,24000,"366 WILLIAM, Buffalo",42.88535299999999,-78.857833,1990/04/01 00:00,1990,0.3395045742993669,0.4363636363636363,638946000.0,04/01/90,10.085809109330082
136,350000,"510 HINMAN, Buffalo",42.95628199999999,-78.88819000000002,1990/04/01 00:00,1990,4.9511083751991,6.363636363636362,638946000.0,04/01/90,12.765688433465597
137,73500,"134 RAMONA, Buffalo",42.8411894,-78.8097923,1990/04/01 00:00,1990,1.0397327587918108,1.3363636363636364,638946000.0,04/01/90,11.205040685200927
138,48000,"89 MAYER, Buffalo",42.9499118,-78.89946119999998,1990/04/01 00:00,1990,0.6790091485987337,0.8727272727272727,638946000.0,04/01/90,10.778956289890028
139,75000,"770 ASHLAND, Buffalo",42.9261709,-78.87858399999998,1990/04/01 00:00,1990,1.0609517946855214,1.3636363636363635,638946000.0,04/01/90,11.225243392518447
140,90000,"405 PARKER, Buffalo",42.95048999999999,-78.83854199999998,1990/04/01 00:00,1990,1.2731421536226255,1.6363636363636365,638946000.0,04/01/90,11.407564949312402
141,25000,"116 FREDRO, Buffalo",42.8709332,-78.8108101,1990/04/01 00:00,1990,0.35365059822850714,0.4545454545454545,638946000.0,04/01/90,10.126631103850338
142,78000,"35 ALDEN, Buffalo",42.957336100000006,-78.84222369999998,1990/04/01 00:00,1990,1.1033898664729422,1.4181818181818182,638946000.0,04/01/90,11.26446410567173
143,21000,"59 ST LOUIS AVE, Buffalo",42.90519099999999,-78.824945,1990/04/01 00:00,1990,0.29706650251194605,0.3818181818181817,638946000.0,04/01/90,9.95227771670556
144,21000,"81 HARMONIA, Buffalo",42.9025794,-78.8305443,1990/04/01 00:00,1990,0.29706650251194605,0.3818181818181817,638946000.0,04/01/90,9.95227771670556
145,28000,"340 NORTHLAND, Buffalo",42.919489,-78.847386,1990/04/01 00:00,1990,0.396088670015928,0.509090909090909,638946000.0,04/01/90,10.239959789157341
146,24000,"210 JEWETT AVE, Buffalo",42.9339299,-78.83636,1990/04/01 00:00,1990,0.3395045742993669,0.4363636363636363,638946000.0,04/01/90,10.085809109330082
147,152500,"46 ASHLAND, Buffalo",42.9061435,-78.87906650000002,1990/04/01 00:00,1990,2.157268649193893,2.772727272727273,638946000.0,04/01/90,11.934919875029603
148,51000,"359 HAMPSHIRE, Buffalo",42.9143303,-78.88897140000002,1990/04/01 00:00,1990,0.7214472203861546,0.9272727272727272,638946000.0,04/01/90,10.839580911706463
149,49000,"254 FENTON, Buffalo",42.8694009,-78.80519,1990/04/01 00:00,1990,0.6931551725278741,0.8909090909090909,638946000.0,04/01/90,10.799575577092764
150,29000,"6 OBERLIN, Buffalo",42.89950200000001,-78.825221,1990/04/01 00:00,1990,0.4102346939450683,0.5272727272727272,638946000.0,04/01/90,10.275051108968611
151,50000,"23 WEX, Buffalo",42.902574,-78.808221,1990/04/01 00:00,1990,0.7073011964570143,0.9090909090909092,638946000.0,04/01/90,10.819778284410283
152,15900,"115 MARIGOLD, Buffalo",42.93598460000001,-78.8290401,1990/04/01 00:00,1990,0.22492178047333056,0.2890909090909091,638946000.0,04/01/90,9.674074388208323
153,56000,"317 WOODSIDE, Buffalo",42.84169199999999,-78.8118113,1990/04/01 00:00,1990,0.792177340031856,1.018181818181818,638946000.0,04/01/90,10.933106969717286
154,52522,"126 ROOSEVELT, Buffalo",42.933948,-78.80885959999998,1990/04/01 00:00,1990,0.7429774688063061,0.9549454545454544,638946000.0,04/01/90,10.86898740842283
155,75500,"651 MCKINLEY PKWY, Buffalo",42.8495268,-78.8191733,1990/05/01 00:00,1990,1.0680248066500917,1.3727272727272728,641534400.0,05/01/90,11.231887935237117
156,56900,"87 HAYDEN, Buffalo",42.8587113,-78.80930550000002,1990/05/01 00:00,1990,0.8049087615680822,1.0345454545454544,641534400.0,05/01/90,10.949050620114422
157,78000,"35 JANET, Buffalo",42.9384065,-78.8002777,1990/05/01 00:00,1990,1.1033898664729422,1.4181818181818182,641534400.0,05/01/90,11.26446410567173
158,400000,"869 BROADWAY, Buffalo",42.891944,-78.84232399999998,1990/05/01 00:00,1990,5.658409571656114,7.272727272727272,641534400.0,05/01/90,12.89921982609012
159,35000,"33 LAUX, Buffalo",42.8780031,-78.83245040000001,1990/05/01 00:00,1990,0.49511083751991,0.6363636363636364,641534400.0,05/01/90,10.46310334047155
160,125000,"257 PARKER, Buffalo",42.946403,-78.83872889999998,1990/05/01 00:00,1990,1.7682529911425358,2.272727272727273,641534400.0,05/01/90,11.736069016284437
161,25000,"74 KIMMEL, Buffalo",42.858601,-78.82551590000001,1990/05/01 00:00,1990,0.35365059822850714,0.4545454545454545,641534400.0,05/01/90,10.126631103850338
162,50000,"460 CORNWALL, Buffalo",42.92741609999999,-78.82213780000002,1990/05/01 00:00,1990,0.7073011964570143,0.9090909090909092,641534400.0,05/01/90,10.819778284410283
163,98125,"317 VIRGINIA ST, Buffalo",42.8956981,-78.8798018,1990/05/01 00:00,1990,1.3880785980468906,1.7840909090909092,641534400.0,05/01/90,11.49399745508471
164,75000,"100 PORTLAND, Buffalo",42.8536238,-78.81417320000001,1990/05/01 00:00,1990,1.0609517946855214,1.3636363636363635,641534400.0,05/01/90,11.225243392518447
165,300000,"828 KENSINGTON, Buffalo",42.934527,-78.82288199999998,1990/05/01 00:00,1990,4.2438071787420855,5.454545454545454,641534400.0,05/01/90,12.611537753638338
166,59900,"285 OGDEN SOUTH, Buffalo",42.8689502,-78.80181970000002,1990/05/01 00:00,1990,0.8473468333555031,1.089090909090909,641534400.0,05/01/90,11.00043178410354
167,40000,"282 BERKSHIRE, Buffalo",42.9411385,-78.815213,1990/05/01 00:00,1990,0.5658409571656114,0.7272727272727273,641534400.0,05/01/90,10.596634733096073
168,69000,"168 REBECCA PARK, Buffalo",42.9533418,-78.8853014,1990/05/01 00:00,1990,0.9760756511106796,1.2545454545454546,641534400.0,05/01/90,11.141861783579396
169,16000,"20 BARTHEL, Buffalo",42.90414579999999,-78.8275579,1990/05/01 00:00,1990,0.22633638286624455,0.2909090909090909,641534400.0,05/01/90,9.680344001221918
170,40000,"16 ROANOKE, Buffalo",42.8595413,-78.8139077,1990/05/01 00:00,1990,0.5658409571656114,0.7272727272727273,641534400.0,05/01/90,10.596634733096073
171,57000,"121 LAIRD, Buffalo",42.95563200000001,-78.90113000000002,1990/05/01 00:00,1990,0.8063233639609964,1.0363636363636364,641534400.0,05/01/90,10.950806546816688
172,52000,"66 HENRIETTA, Buffalo",42.956638,-78.900437,1990/05/01 00:00,1990,0.7355932443152948,0.9454545454545454,641534400.0,05/01/90,10.858998997563564
173,85000,"1367 FILLMORE, Buffalo",42.9110956,-78.83883209999998,1990/05/01 00:00,1990,1.2024120339769242,1.5454545454545454,641534400.0,05/01/90,11.350406535472453
174,12000,"12 VIOLA, Buffalo",42.92139,-78.846311,1990/05/01 00:00,1990,0.16975228714968346,0.21818181818181814,641534400.0,05/01/90,9.392661928770137
175,32000,"631 UTICA EAST, Buffalo",42.910691,-78.84213000000003,1990/05/01 00:00,1990,0.4526727657324892,0.5818181818181818,641534400.0,05/01/90,10.373491181781864
176,25000,"34 BOYD, Buffalo",42.917692,-78.889276,1990/05/01 00:00,1990,0.35365059822850714,0.4545454545454545,641534400.0,05/01/90,10.126631103850338
177,64000,"48 FREUND, Buffalo",42.918605,-78.8024623,1990/05/01 00:00,1990,0.9053455314649784,1.1636363636363636,641534400.0,05/01/90,11.06663836234181
178,18900,"791 BEST, Buffalo",42.9034542,-78.8382865,1990/05/01 00:00,1990,0.26735985226075143,0.34363636363636363,641534400.0,05/01/90,9.846917201047734
179,33000,"149 KINGSLEY, Buffalo",42.90799000000001,-78.84825099999998,1990/05/01 00:00,1990,0.4668187896616294,0.6,641534400.0,05/01/90,10.404262840448617
180,89000,"28 MINNETONKA, Buffalo",42.8413256,-78.8073441,1990/05/01 00:00,1990,1.2589961296934855,1.6181818181818182,641534400.0,05/01/90,11.396391648714276
181,24500,"232 LOEPERE, Buffalo",42.900417,-78.83479399999997,1990/05/01 00:00,1990,0.34657758626393703,0.44545454545454544,641534400.0,05/01/90,10.106428396532818
182,32000,"522 UTICA EAST, Buffalo",42.9112366,-78.84633769999998,1990/05/01 00:00,1990,0.4526727657324892,0.5818181818181818,641534400.0,05/01/90,10.373491181781864
183,90000,"51 MILITARY, Buffalo",42.93815900000001,-78.89223100000002,1990/05/01 00:00,1990,1.2731421536226255,1.6363636363636365,641534400.0,05/01/90,11.407564949312402
184,25500,"655 FERRY EAST, Buffalo",42.9144677,-78.83983479999998,1990/05/01 00:00,1990,0.3607236101930773,0.4636363636363636,641534400.0,05/01/90,10.146433731146518
185,27000,"47 HOWLETT, Buffalo",42.90257800000001,-78.827708,1990/05/01 00:00,1990,0.3819426460867877,0.4909090909090909,641534400.0,05/01/90,10.203592144986466
186,90000,"714 PARKSIDE, Buffalo",42.94942169999999,-78.84956679999998,1990/05/01 00:00,1990,1.2731421536226255,1.6363636363636365,641534400.0,05/01/90,11.407564949312402
187,65000,"771 PROSPECT, Buffalo",42.9072963,-78.89582469999998,1990/05/01 00:00,1990,0.9194915553941184,1.181818181818182,641534400.0,05/01/90,11.082142548877775
188,40000,"30 BOYD, Buffalo",42.91763880000001,-78.88936939999998,1990/05/01 00:00,1990,0.5658409571656114,0.7272727272727273,641534400.0,05/01/90,10.596634733096073
189,37500,"358 GIBSON, Buffalo",42.8953899,-78.83846340000002,1990/05/01 00:00,1990,0.5304758973427607,0.6818181818181818,641534400.0,05/01/90,10.532096211958502
190,13500,"762 SYCAMORE, Buffalo",42.896711,-78.843068,1990/05/01 00:00,1990,0.19097132304339387,0.24545454545454545,641534400.0,05/01/90,9.51044496442652
191,15000,"270 BUSTI, Buffalo",42.892885,-78.888019,1990/05/01 00:00,1990,0.21219035893710428,0.2727272727272727,641534400.0,05/01/90,9.615805480084347
192,158000,"90 HIGHLAND, Buffalo",42.91386,-78.87305230000003,1990/05/01 00:00,1990,2.2350717808041654,2.872727272727273,641534400.0,05/01/90,11.970350312009105
193,190000,"1119 DELAWARE, Buffalo",42.914246,-78.868802,1990/05/01 00:00,1990,2.6877445465366545,3.4545454545454546,641534400.0,05/01/90,12.154779351142624
194,275000,"101 HALLAM, Buffalo",42.9394237,-78.87033249999998,1990/05/01 00:00,1990,3.8901565805135783,5.0,641534400.0,05/01/90,12.524526376648708
195,20000,"49 HARMONIA, Buffalo",42.901735,-78.83051800000001,1990/06/01 00:00,1990,0.2829204785828057,0.3636363636363637,644212800.0,06/01/90,9.903487552536127
196,65000,"109 FAIRFIELD, Buffalo",42.9398347,-78.84287619999998,1990/06/01 00:00,1990,0.9194915553941184,1.181818181818182,644212800.0,06/01/90,11.082142548877775
197,88500,"55 WHITEHALL, Buffalo",42.8352393,-78.81280140000001,1990/06/01 00:00,1990,1.2519231177289154,1.6090909090909091,644212800.0,06/01/90,11.390757830996021
198,62800,"146 CANTWELL, Buffalo",42.8356673,-78.81828829999998,1990/06/01 00:00,1990,0.8883703027500099,1.1418181818181818,644212800.0,06/01/90,11.04771035245629
199,103000,"62 BEYER, Buffalo",42.84570979999999,-78.80154999999998,1990/06/01 00:00,1990,1.4570404647014494,1.8727272727272728,644212800.0,06/01/90,11.542484267211773
200,79350,"342 LAFAYETTE AVE, Buffalo",42.9204778,-78.8857436,1990/06/01 00:00,1990,1.1224869987772816,1.4427272727272726,644212800.0,06/01/90,11.281623725954555
201,35000,"18 OAKWOOD EAST, Buffalo",42.9324002,-78.8456741,1990/06/01 00:00,1990,0.49511083751991,0.6363636363636364,644212800.0,06/01/90,10.46310334047155
202,25000,"381 MAY, Buffalo",42.910979,-78.816501,1990/06/01 00:00,1990,0.35365059822850714,0.4545454545454545,644212800.0,06/01/90,10.126631103850338
203,62700,"48 GEARY, Buffalo",42.8560488,-78.8112969,1990/06/01 00:00,1990,0.8869557003570959,1.14,644212800.0,06/01/90,11.046116726621012
204,63000,"164 WOODSIDE WEST, Buffalo",42.8427488,-78.8261863,1990/06/01 00:00,1990,0.891199507535838,1.1454545454545455,644212800.0,06/01/90,11.05089000537367
205,48900,"153 MASTEN, Buffalo",42.906436,-78.85934499999998,1990/06/01 00:00,1990,0.6917405701349599,0.889090909090909,644212800.0,06/01/90,10.797532675462964
206,22500,"23 ZENNER, Buffalo",42.912522,-78.8155007,1990/06/01 00:00,1990,0.31828553840565643,0.4090909090909091,644212800.0,06/01/90,10.021270588192511
207,80000,"108 HOMER, Buffalo",42.9508299,-78.86619739999998,1990/06/01 00:00,1990,1.131681914331223,1.4545454545454546,644212800.0,06/01/90,11.289781913656018
208,19900,"56 DOAT, Buffalo",42.909989,-78.818905,1990/06/01 00:00,1990,0.2815058761898917,0.3618181818181818,644212800.0,06/01/90,9.898475010712584
209,27000,"24 OBERLIN, Buffalo",42.9000889,-78.8251023,1990/06/01 00:00,1990,0.3819426460867877,0.4909090909090909,644212800.0,06/01/90,10.203592144986466
210,227500,"89 TILLINGHAST, Buffalo",42.9420155,-78.85266379999999,1990/06/01 00:00,1990,3.2182204438794146,4.136363636363637,644212800.0,06/01/90,12.334905517373143
211,60000,"77 GORSKI, Buffalo",42.8691055,-78.8094383,1990/06/01 00:00,1990,0.8487614357484171,1.0909090909090908,644212800.0,06/01/90,11.002099841204238
212,72000,"18 KRAKOW, Buffalo",42.87245859999999,-78.8098808,1990/06/01 00:00,1990,1.0185137228981005,1.3090909090909093,644212800.0,06/01/90,11.184421397998193
213,355000,"11 MOHAWK EAST, Buffalo",42.88688399999999,-78.87335499999998,1990/06/01 00:00,1990,5.0218384948448005,6.454545454545454,644212800.0,06/01/90,12.779873068457553
214,80000,"374 BRYANT, Buffalo",42.90868560000001,-78.8810343,1990/06/01 00:00,1990,1.131681914331223,1.4545454545454546,644212800.0,06/01/90,11.289781913656018
215,15000,"60 ASHLEY, Buffalo",42.89400300000001,-78.826961,1990/06/01 00:00,1990,0.21219035893710428,0.2727272727272727,644212800.0,06/01/90,9.615805480084347
216,69483,"338 SYCAMORE, Buffalo",42.8919782,-78.8580111,1990/06/01 00:00,1990,0.9829081806684544,1.2633272727272726,644212800.0,06/01/90,11.148837397315821
217,15500,"582 SPRING, Buffalo",42.892603,-78.85948499999998,1990/06/01 00:00,1990,0.21926337090167444,0.2818181818181818,644212800.0,06/01/90,9.648595302907339
218,61000,"162 BARTON, Buffalo",42.9172896,-78.8946309,1990/06/01 00:00,1990,0.8629074596775574,1.1090909090909091,644212800.0,06/01/90,11.018629143155449
219,39000,"223 CAMBRIDGE, Buffalo",42.9207881,-78.82235909999999,1990/06/01 00:00,1990,0.5516949332364711,0.7090909090909091,644212800.0,06/01/90,10.571316925111784
220,55000,"120 FENTON, Buffalo",42.865499,-78.805334,1990/06/01 00:00,1990,0.7780313161027157,1.0,644212800.0,06/01/90,10.915088464214607
221,34000,"344 CAMBRIDGE, Buffalo",42.9240776,-78.82333249999998,1990/06/01 00:00,1990,0.4809648135907697,0.6181818181818182,644212800.0,06/01/90,10.4341158035983
222,35000,"35 DORRIS, Buffalo",42.9260706,-78.81687240000002,1990/06/01 00:00,1990,0.49511083751991,0.6363636363636364,644212800.0,06/01/90,10.46310334047155
223,24900,"32 HOUGHTON, Buffalo",42.8928749,-78.831998,1990/06/01 00:00,1990,0.3522359958355931,0.4527272727272727,644212800.0,06/01/90,10.1226230824528
224,45000,"69 CONNELLY, Buffalo",42.9294552,-78.8157662,1990/06/01 00:00,1990,0.6365710768113129,0.8181818181818182,644212800.0,06/01/90,10.714417768752456
225,34500,"317 IDEAL, Buffalo",42.8935359,-78.80715090000002,1990/06/01 00:00,1990,0.4880378255553399,0.6272727272727273,644212800.0,06/01/90,10.448714603019452
226,32000,"115 SELKIRK, Buffalo",42.871166,-78.8425776,1990/06/01 00:00,1990,0.4526727657324892,0.5818181818181818,644212800.0,06/01/90,10.373491181781864
227,90000,"186 MINNESOTA, Buffalo",42.9470005,-78.82263780000002,1990/06/01 00:00,1990,1.2731421536226255,1.6363636363636365,644212800.0,06/01/90,11.407564949312402
228,43000,"41 ARMIN, Buffalo",42.86030510000001,-78.81365450000001,1990/06/01 00:00,1990,0.6082790289530323,0.7818181818181819,644212800.0,06/01/90,10.668955394675699
229,80000,"374 BRYANT, Buffalo",42.90868560000001,-78.8810343,1990/06/01 00:00,1990,1.131681914331223,1.4545454545454546,644212800.0,06/01/90,11.289781913656018
230,355000,"11 MOHAWK EAST, Buffalo",42.88688399999999,-78.87335499999998,1990/06/01 00:00,1990,5.0218384948448005,6.454545454545454,644212800.0,06/01/90,12.779873068457553
231,35000,"35 DORRIS, Buffalo",42.9260706,-78.81687240000002,1990/06/01 00:00,1990,0.49511083751991,0.6363636363636364,644212800.0,06/01/90,10.46310334047155
232,227500,"89 TILLINGHAST, Buffalo",42.9420155,-78.85266379999999,1990/06/01 00:00,1990,3.2182204438794146,4.136363636363637,644212800.0,06/01/90,12.334905517373143
233,79350,"342 LAFAYETTE AVE, Buffalo",42.9204778,-78.8857436,1990/06/01 00:00,1990,1.1224869987772816,1.4427272727272726,644212800.0,06/01/90,11.281623725954555
234,19900,"56 DOAT, Buffalo",42.909989,-78.818905,1990/06/01 00:00,1990,0.2815058761898917,0.3618181818181818,644212800.0,06/01/90,9.898475010712584
235,72000,"18 KRAKOW, Buffalo",42.87245859999999,-78.8098808,1990/06/01 00:00,1990,1.0185137228981005,1.3090909090909093,644212800.0,06/01/90,11.184421397998193
236,39000,"223 CAMBRIDGE, Buffalo",42.9207881,-78.82235909999999,1990/06/01 00:00,1990,0.5516949332364711,0.7090909090909091,644212800.0,06/01/90,10.571316925111784
237,62700,"48 GEARY, Buffalo",42.8560488,-78.8112969,1990/06/01 00:00,1990,0.8869557003570959,1.14,644212800.0,06/01/90,11.046116726621012
238,45000,"69 CONNELLY, Buffalo",42.9294552,-78.8157662,1990/06/01 00:00,1990,0.6365710768113129,0.8181818181818182,644212800.0,06/01/90,10.714417768752456
239,22500,"23 ZENNER, Buffalo",42.912522,-78.8155007,1990/06/01 00:00,1990,0.31828553840565643,0.4090909090909091,644212800.0,06/01/90,10.021270588192511
240,15000,"60 ASHLEY, Buffalo",42.89400300000001,-78.826961,1990/06/01 00:00,1990,0.21219035893710428,0.2727272727272727,644212800.0,06/01/90,9.615805480084347
241,90000,"186 MINNESOTA, Buffalo",42.9470005,-78.82263780000002,1990/06/01 00:00,1990,1.2731421536226255,1.6363636363636365,644212800.0,06/01/90,11.407564949312402
242,24900,"32 HOUGHTON, Buffalo",42.8928749,-78.831998,1990/06/01 00:00,1990,0.3522359958355931,0.4527272727272727,644212800.0,06/01/90,10.1226230824528
243,34500,"317 IDEAL, Buffalo",42.8935359,-78.80715090000002,1990/06/01 00:00,1990,0.4880378255553399,0.6272727272727273,644212800.0,06/01/90,10.448714603019452
244,20000,"49 HARMONIA, Buffalo",42.901735,-78.83051800000001,1990/06/01 00:00,1990,0.2829204785828057,0.3636363636363637,644212800.0,06/01/90,9.903487552536127
245,63000,"164 WOODSIDE WEST, Buffalo",42.8427488,-78.8261863,1990/06/01 00:00,1990,0.891199507535838,1.1454545454545455,644212800.0,06/01/90,11.05089000537367
246,103000,"62 BEYER, Buffalo",42.84570979999999,-78.80154999999998,1990/06/01 00:00,1990,1.4570404647014494,1.8727272727272728,644212800.0,06/01/90,11.542484267211773
247,27000,"24 OBERLIN, Buffalo",42.9000889,-78.8251023,1990/06/01 00:00,1990,0.3819426460867877,0.4909090909090909,644212800.0,06/01/90,10.203592144986466
248,34000,"344 CAMBRIDGE, Buffalo",42.9240776,-78.82333249999998,1990/06/01 00:00,1990,0.4809648135907697,0.6181818181818182,644212800.0,06/01/90,10.4341158035983
249,25000,"381 MAY, Buffalo",42.910979,-78.816501,1990/06/01 00:00,1990,0.35365059822850714,0.4545454545454545,644212800.0,06/01/90,10.126631103850338
250,69483,"338 SYCAMORE, Buffalo",42.8919782,-78.8580111,1990/06/01 00:00,1990,0.9829081806684544,1.2633272727272726,644212800.0,06/01/90,11.148837397315821
251,88500,"55 WHITEHALL, Buffalo",42.8352393,-78.81280140000001,1990/06/01 00:00,1990,1.2519231177289154,1.6090909090909091,644212800.0,06/01/90,11.390757830996021
252,48900,"153 MASTEN, Buffalo",42.906436,-78.85934499999998,1990/06/01 00:00,1990,0.6917405701349599,0.889090909090909,644212800.0,06/01/90,10.797532675462964
253,60000,"77 GORSKI, Buffalo",42.8691055,-78.8094383,1990/06/01 00:00,1990,0.8487614357484171,1.0909090909090908,644212800.0,06/01/90,11.002099841204238
254,62800,"146 CANTWELL, Buffalo",42.8356673,-78.81828829999998,1990/06/01 00:00,1990,0.8883703027500099,1.1418181818181818,644212800.0,06/01/90,11.04771035245629
255,35000,"18 OAKWOOD EAST, Buffalo",42.9324002,-78.8456741,1990/06/01 00:00,1990,0.49511083751991,0.6363636363636364,644212800.0,06/01/90,10.46310334047155
256,32000,"115 SELKIRK, Buffalo",42.871166,-78.8425776,1990/06/01 00:00,1990,0.4526727657324892,0.5818181818181818,644212800.0,06/01/90,10.373491181781864
257,15500,"582 SPRING, Buffalo",42.892603,-78.85948499999998,1990/06/01 00:00,1990,0.21926337090167444,0.2818181818181818,644212800.0,06/01/90,9.648595302907339
258,65000,"109 FAIRFIELD, Buffalo",42.9398347,-78.84287619999998,1990/06/01 00:00,1990,0.9194915553941184,1.181818181818182,644212800.0,06/01/90,11.082142548877775
259,80000,"108 HOMER, Buffalo",42.9508299,-78.86619739999998,1990/06/01 00:00,1990,1.131681914331223,1.4545454545454546,644212800.0,06/01/90,11.289781913656018
260,43000,"41 ARMIN, Buffalo",42.86030510000001,-78.81365450000001,1990/06/01 00:00,1990,0.6082790289530323,0.7818181818181819,644212800.0,06/01/90,10.668955394675699
261,61000,"162 BARTON, Buffalo",42.9172896,-78.8946309,1990/06/01 00:00,1990,0.8629074596775574,1.1090909090909091,644212800.0,06/01/90,11.018629143155449
262,55000,"120 FENTON, Buffalo",42.865499,-78.805334,1990/06/01 00:00,1990,0.7780313161027157,1.0,644212800.0,06/01/90,10.915088464214607
263,44100,"181 NEWBURGH, Buffalo",42.9196811,-78.8084647,1990/07/01 00:00,1990,0.6238396552750866,0.8018181818181818,646804800.0,07/01/90,10.694215061434937
264,23000,"27 A ST, Buffalo",42.900635,-78.838042,1990/07/01 00:00,1990,0.3253585503702266,0.41818181818181815,646804800.0,07/01/90,10.043249494911286
265,45000,"54 BUFFUM, Buffalo",42.853690500000006,-78.80512359999999,1990/07/01 00:00,1990,0.6365710768113129,0.8181818181818182,646804800.0,07/01/90,10.714417768752456
266,46000,"39 CONNELLY, Buffalo",42.929489200000006,-78.81687240000002,1990/07/01 00:00,1990,0.6507171007404532,0.8363636363636363,646804800.0,07/01/90,10.736396675471232
267,134000,"493 DELAWARE, Buffalo",42.897649,-78.874186,1990/07/01 00:00,1990,1.8955672065047984,2.4363636363636365,646804800.0,07/01/90,11.805595078933049
268,15000,"1094 ELLICOTT, Buffalo",42.90780059999999,-78.86511379999997,1990/07/01 00:00,1990,0.21219035893710428,0.2727272727272727,646804800.0,07/01/90,9.615805480084347
269,150000,"474 BABCOCK, Buffalo",42.87692979999999,-78.83025669999998,1990/07/01 00:00,1990,2.1219035893710427,2.727272727272727,646804800.0,07/01/90,11.918390573078392
270,46500,"1283 WEST, Buffalo",42.92517210000001,-78.89569209999998,1990/07/01 00:00,1990,0.6577901127050233,0.8454545454545455,646804800.0,07/01/90,10.747207591575448
271,16200,"240 BUSTI, Buffalo",42.892338,-78.88750499999998,1990/07/01 00:00,1990,0.22916558765207265,0.2945454545454545,646804800.0,07/01/90,9.692766521220475
272,43000,"395 HEWITT, Buffalo",42.94248029999999,-78.80996929999998,1990/07/01 00:00,1990,0.6082790289530323,0.7818181818181819,646804800.0,07/01/90,10.668955394675699
273,46000,"111 GOLD, Buffalo",42.88766920000001,-78.80474749999998,1990/07/01 00:00,1990,0.6507171007404532,0.8363636363636363,646804800.0,07/01/90,10.736396675471232
274,23500,"32 ZENNER, Buffalo",42.912832,-78.816023,1990/07/01 00:00,1990,0.3324315623347967,0.4272727272727273,646804800.0,07/01/90,10.06475570013225
275,21200,"575 FULTON, Buffalo",42.8699963,-78.8500025,1990/07/01 00:00,1990,0.29989570729777404,0.38545454545454544,646804800.0,07/01/90,9.961756460660103
276,51000,"368 BIRD, Buffalo",42.926146,-78.8853014,1990/07/01 00:00,1990,0.7214472203861546,0.9272727272727272,646804800.0,07/01/90,10.839580911706463
277,21000,"199 ORLANDO, Buffalo",42.86991099999999,-78.8358422,1990/07/01 00:00,1990,0.29706650251194605,0.3818181818181817,646804800.0,07/01/90,9.95227771670556
278,26500,"48 NORTHUMBERLAND, Buffalo",42.9159842,-78.8206998,1990/07/01 00:00,1990,0.3748696341222176,0.4818181818181818,646804800.0,07/01/90,10.184900011974314
279,37500,"176 ROSLYN, Buffalo",42.9193367,-78.80992509999999,1990/07/01 00:00,1990,0.5304758973427607,0.6818181818181818,646804800.0,07/01/90,10.532096211958502
280,71000,"82 DUNDEE, Buffalo",42.838365,-78.80442830000001,1990/07/01 00:00,1990,1.0043676989689605,1.2909090909090908,646804800.0,07/01/90,11.170435156023453
281,117000,"86 NIAGARA FALLS BLVD, Buffalo",42.956379,-78.8237307,1990/07/01 00:00,1990,1.6550847997094134,2.1272727272727274,646804800.0,07/01/90,11.669929213779893
282,64000,"26 EVANSTON, Buffalo",42.8338919,-78.8197485,1990/07/01 00:00,1990,0.9053455314649784,1.1636363636363636,646804800.0,07/01/90,11.06663836234181
283,101000,"272 NORTH PARK, Buffalo",42.9520928,-78.8561132,1990/07/01 00:00,1990,1.4287484168431688,1.8363636363636364,646804800.0,07/01/90,11.522875795823397
284,195000,"251 LAKEFRONT, Buffalo",42.8860235,-78.88741519999998,1990/07/01 00:00,1990,2.758474666182356,3.5454545454545454,646804800.0,07/01/90,12.180754837545884
285,85000,"160 WELLINGTON, Buffalo",42.948839,-78.8520439,1990/07/01 00:00,1990,1.2024120339769242,1.5454545454545454,646804800.0,07/01/90,11.350406535472453
286,37000,"51 KIRKPATRICK, Buffalo",42.92152670000001,-78.8153679,1990/07/01 00:00,1990,0.5234028853781906,0.6727272727272727,646804800.0,07/01/90,10.51867319162636
287,51000,"66 WEAVER, Buffalo",42.8737135,-78.8043049,1990/07/01 00:00,1990,0.7214472203861546,0.9272727272727272,646804800.0,07/01/90,10.839580911706463
288,53000,"206 SOUTHSIDE, Buffalo",42.8543531,-78.82386340000002,1990/07/01 00:00,1990,0.7497392682444352,0.9636363636363636,646804800.0,07/01/90,10.87804719253426
289,67000,"221 STEVENSON, Buffalo",42.8581539,-78.81395189999998,1990/07/01 00:00,1990,0.9477836032523992,1.2181818181818185,646804800.0,07/01/90,11.112447898373103
290,48000,"511 DELAVAN EAST, Buffalo",42.921524700000006,-78.8380432,1990/07/01 00:00,1990,0.6790091485987337,0.8727272727272727,646804800.0,07/01/90,10.778956289890028
291,91000,"144 WESLEY, Buffalo",42.94705670000001,-78.8373574,1990/07/01 00:00,1990,1.287288177551766,1.6545454545454543,646804800.0,07/01/90,11.418614785498987
292,40000,"2067 SENECA, Buffalo",42.8555235,-78.81027069999998,1990/07/01 00:00,1990,0.5658409571656114,0.7272727272727273,646804800.0,07/01/90,10.596634733096073
293,50000,"67 FULLER, Buffalo",42.9492942,-78.90677790000002,1990/07/01 00:00,1990,0.7073011964570143,0.9090909090909092,646804800.0,07/01/90,10.819778284410283
294,41000,"53 LIDDELL, Buffalo",42.897793,-78.81973599999998,1990/07/01 00:00,1990,0.5799869810947518,0.7454545454545455,646804800.0,07/01/90,10.621327345686446
295,65000,"257 ONTARIO, Buffalo",42.9515134,-78.90172249999998,1990/07/01 00:00,1990,0.9194915553941184,1.181818181818182,646804800.0,07/01/90,11.082142548877775
296,27500,"224 GOODYEAR, Buffalo",42.902217,-78.822193,1990/07/01 00:00,1990,0.38901565805135785,0.5,646804800.0,07/01/90,10.221941283654663
297,87225,"133 WILLIAM, Buffalo",42.88458920000001,-78.8659005,1990/07/18 00:00,1990,1.2338869372192611,1.585909090909091,648273600.0,07/18/90,11.376246266054975
298,40000,"169 BUTLER, Buffalo",42.91594800000001,-78.845799,1990/08/01 00:00,1990,0.5658409571656114,0.7272727272727273,649483200.0,08/01/90,10.596634733096073
299,82500,"28 LOVERING, Buffalo",42.9486498,-78.8634995,1990/08/01 00:00,1990,1.1670469741540737,1.5,649483200.0,08/01/90,11.320553572322773
300,170000,"385 BRYANT, Buffalo",42.90916259999999,-78.88129959999998,1990/08/01 00:00,1990,2.4048240679538484,3.0909090909090913,649483200.0,08/01/90,12.043553716032399
301,28000,"18 MARIGOLD, Buffalo",42.933297,-78.829737,1990/08/01 00:00,1990,0.396088670015928,0.509090909090909,649483200.0,08/01/90,10.239959789157341
302,136000,"191 LANCASTER, Buffalo",42.91970900000001,-78.8753119,1990/08/01 00:00,1990,1.9238592543630788,2.4727272727272727,649483200.0,08/01/90,11.820410164718188
303,55000,"19 AVON, Buffalo",42.83155,-78.762127,1990/08/01 00:00,1990,0.7780313161027157,1.0,649483200.0,08/01/90,10.915088464214607
304,62000,"46 PUTNAM ST, Buffalo",42.91822330000001,-78.8845939,1990/08/01 00:00,1990,0.8770534836066978,1.1272727272727272,649483200.0,08/01/90,11.03488966402723
305,54595,"68 GODFREY, Buffalo",42.9392889,-78.8054113,1990/08/01 00:00,1990,0.772302176411414,0.9926363636363637,649483200.0,08/01/90,10.907697582448167
306,115000,"187 CLEVELAND AVE, Buffalo",42.9177112,-78.87572779999998,1990/08/01 00:00,1990,1.6267927518511331,2.090909090909091,649483200.0,08/01/90,11.652687407345388
307,66000,"45 CLIO, Buffalo",42.8528305,-78.81948299999998,1990/08/01 00:00,1990,0.9336375793232587,1.2,649483200.0,08/01/90,11.097410021008562
308,68000,"183 HOLLY, Buffalo",42.86752910000001,-78.8038145,1990/08/01 00:00,1990,0.9619296271815394,1.2363636363636363,649483200.0,08/01/90,11.127262984158243
309,112000,"582 DORRANCE, Buffalo",42.8322067,-78.8015168,1990/08/01 00:00,1990,1.584354680063712,2.036363636363636,649483200.0,08/01/90,11.626254150277232
310,54000,"615 HOPKINS, Buffalo",42.8542894,-78.8320043,1990/08/01 00:00,1990,0.7638852921735755,0.9818181818181818,649483200.0,08/01/90,10.896739325546411
311,100000,"326 COMMONWEALTH, Buffalo",42.95406,-78.8619958,1990/08/01 00:00,1990,1.4146023929140286,1.818181818181818,649483200.0,08/01/90,11.512925464970229
312,25000,"432 KOONS, Buffalo",42.908022,-78.821451,1990/08/01 00:00,1990,0.35365059822850714,0.4545454545454545,649483200.0,08/01/90,10.126631103850338
313,89000,"42 NARAGANSETT, Buffalo",42.8401392,-78.80637770000001,1990/08/01 00:00,1990,1.2589961296934855,1.6181818181818182,649483200.0,08/01/90,11.396391648714276
314,75000,"59 HARDING, Buffalo",42.8402005,-78.82151840000002,1990/08/01 00:00,1990,1.0609517946855214,1.3636363636363635,649483200.0,08/01/90,11.225243392518447
315,37000,"24 LIDDELL, Buffalo",42.8969323,-78.8202463,1990/08/01 00:00,1990,0.5234028853781906,0.6727272727272727,649483200.0,08/01/90,10.51867319162636
316,57000,"71 OBERLIN, Buffalo",42.90132,-78.824474,1990/08/01 00:00,1990,0.8063233639609964,1.0363636363636364,649483200.0,08/01/90,10.950806546816688
317,91000,"57 WELLINGTON, Buffalo",42.9459311,-78.85111500000002,1990/08/01 00:00,1990,1.287288177551766,1.6545454545454543,649483200.0,08/01/90,11.418614785498987
318,51000,"94 WESTON, Buffalo",42.9284965,-78.8102348,1990/08/01 00:00,1990,0.7214472203861546,0.9272727272727272,649483200.0,08/01/90,10.839580911706463
319,49000,"465 WILLETT, Buffalo",42.8748812,-78.8028003,1990/08/01 00:00,1990,0.6931551725278741,0.8909090909090909,649483200.0,08/01/90,10.799575577092764
320,50000,"55 KENEFICK, Buffalo",42.850247,-78.82151840000002,1990/08/01 00:00,1990,0.7073011964570143,0.9090909090909092,649483200.0,08/01/90,10.819778284410283
321,41000,"612 WYOMING, Buffalo",42.93135270000001,-78.82459320000002,1990/08/01 00:00,1990,0.5799869810947518,0.7454545454545455,649483200.0,08/01/90,10.621327345686446
322,60000,"142 AUBURN, Buffalo",42.91864959999999,-78.89547100000001,1990/08/01 00:00,1990,0.8487614357484171,1.0909090909090908,649483200.0,08/01/90,11.002099841204238
323,25000,"96 SCHUTRUM, Buffalo",42.899124,-78.81829599999998,1990/08/01 00:00,1990,0.35365059822850714,0.4545454545454545,649483200.0,08/01/90,10.126631103850338
324,34000,"137 PLAYTER, Buffalo",42.89089999999999,-78.834233,1990/08/01 00:00,1990,0.4809648135907697,0.6181818181818182,649483200.0,08/01/90,10.4341158035983
325,112000,"97 TREEHAVEN, Buffalo",42.9485687,-78.79974659999998,1990/08/01 00:00,1990,1.584354680063712,2.036363636363636,649483200.0,08/01/90,11.626254150277232
326,85000,"655 GENESEE, Buffalo",42.8966152,-78.8521763,1990/08/01 00:00,1990,1.2024120339769242,1.5454545454545454,649483200.0,08/01/90,11.350406535472453
327,76900,"95 LOVERING, Buffalo",42.9505375,-78.8628361,1990/08/01 00:00,1990,1.087829240150888,1.3981818181818182,649483200.0,08/01/90,11.250261155493735
328,25000,"58 WILSON, Buffalo",42.88668300000001,-78.84038699999998,1990/08/01 00:00,1990,0.35365059822850714,0.4545454545454545,649483200.0,08/01/90,10.126631103850338
329,53000,"132 GARFIELD, Buffalo",42.9446252,-78.90214700000001,1990/08/01 00:00,1990,0.7497392682444352,0.9636363636363636,649483200.0,08/01/90,10.87804719253426
330,51000,"119 GREELEY, Buffalo",42.95112320000001,-78.88220609999998,1990/08/01 00:00,1990,0.7214472203861546,0.9272727272727272,649483200.0,08/01/90,10.839580911706463
331,98000,"109 MCKINLEY PKWY, Buffalo",42.834925,-78.814645,1990/08/01 00:00,1990,1.386310345055748,1.7818181818181815,649483200.0,08/01/90,11.49272275765271
332,1700000,"129 TUPPER WEST, Buffalo",42.894533,-78.8768319,1990/08/01 00:00,1990,24.048240679538488,30.90909090909091,649483200.0,08/01/90,14.346138809026444
333,67000,"128 ROSS, Buffalo",42.954871,-78.9024564,1990/08/01 00:00,1990,0.9477836032523992,1.2181818181818185,649483200.0,08/01/90,11.112447898373103
334,34000,"384 WILSON, Buffalo",42.8956469,-78.84034299999998,1990/08/01 00:00,1990,0.4809648135907697,0.6181818181818182,649483200.0,08/01/90,10.4341158035983
335,52000,"33 PERKINS, Buffalo",42.9228435,-78.89359189999998,1990/08/01 00:00,1990,0.7355932443152948,0.9454545454545454,649483200.0,08/01/90,10.858998997563564
336,85200,"153 INDIAN CHURCH, Buffalo",42.8541063,-78.8005433,1990/08/01 00:00,1990,1.2052412387627525,1.549090909090909,649483200.0,08/01/90,11.352756712817406
337,35000,"95 JONES, Buffalo",42.8805313,-78.83389559999998,1990/08/01 00:00,1990,0.49511083751991,0.6363636363636364,649483200.0,08/01/90,10.46310334047155
338,78000,"48 SUNSET, Buffalo",42.9491703,-78.8845055,1990/08/01 00:00,1990,1.1033898664729422,1.4181818181818182,649483200.0,08/01/90,11.26446410567173
339,26900,"85 CARL, Buffalo",42.9168688,-78.82758000000003,1990/08/01 00:00,1990,0.3805280436938737,0.4890909090909091,649483200.0,08/01/90,10.19988156558993
340,62500,"33 RICHFIELD, Buffalo",42.8458191,-78.82240329999998,1990/08/01 00:00,1990,0.8841264955712679,1.1363636363636365,649483200.0,08/01/90,11.042921835724492
341,28000,"45 CLEMO, Buffalo",42.8785929,-78.8331195,1990/08/01 00:00,1990,0.396088670015928,0.509090909090909,649483200.0,08/01/90,10.239959789157341
342,29500,"14 OBERLIN, Buffalo",42.89967,-78.825222,1990/08/01 00:00,1990,0.4173077059096385,0.5363636363636364,649483200.0,08/01/90,10.292145542327912
343,54000,"366 SHIRLEY, Buffalo",42.9443715,-78.8111531,1990/08/01 00:00,1990,0.7638852921735755,0.9818181818181818,649483200.0,08/01/90,10.896739325546411
344,77000,"358 MINNESOTA, Buffalo",42.946396,-78.81616439999998,1990/08/01 00:00,1990,1.089243842543802,1.4,649483200.0,08/01/90,11.251560700835821
345,59700,"31 JOHN PAUL COURT, Buffalo",42.88409470000001,-78.84173709999997,1990/08/01 00:00,1990,0.844517628569675,1.0854545454545454,649483200.0,08/01/90,10.997087299380693
346,125000,"35 BURKE, Buffalo",42.94356750000001,-78.8019594,1990/08/01 00:00,1990,1.7682529911425358,2.272727272727273,649483200.0,08/01/90,11.736069016284437
347,32000,"140 FARMER, Buffalo",42.9411654,-78.9009533,1990/08/01 00:00,1990,0.4526727657324892,0.5818181818181818,649483200.0,08/01/90,10.373491181781864
348,68000,"106 FORMAN, Buffalo",42.912417,-78.81060500000002,1990/08/01 00:00,1990,0.9619296271815394,1.2363636363636363,649483200.0,08/01/90,11.127262984158243
349,107000,"385 CRESCENT, Buffalo",42.937892100000006,-78.8451377,1990/08/01 00:00,1990,1.5136245604180103,1.945454545454545,649483200.0,08/01/90,11.580584113444043
350,50000,"202 DEWITT, Buffalo",42.92249020000001,-78.89526099999998,1990/08/01 00:00,1990,0.7073011964570143,0.9090909090909092,649483200.0,08/01/90,10.819778284410283
351,95000,"64 DEPEW EAST, Buffalo",42.94210959999999,-78.832757,1990/08/01 00:00,1990,1.3438722732683273,1.7272727272727273,649483200.0,08/01/90,11.461632170582678
352,89500,"168 PINE ST, Buffalo",42.8845794,-78.8638689,1990/08/14 00:00,1990,1.2660691416580556,1.6272727272727272,650606400.0,08/14/90,11.401993904262946
353,58450,"265 DAVEY, Buffalo",42.8920869,-78.8034198,1990/09/01 00:00,1990,0.8268350986582497,1.0627272727272727,652161600.0,09/01/90,10.975926966900214
354,34000,"61 MANITOBA, Buffalo",42.8764632,-78.82575440000002,1990/09/01 00:00,1990,0.4809648135907697,0.6181818181818182,652161600.0,09/01/90,10.4341158035983
355,79000,"666 FERRY WEST, Buffalo",42.915688,-78.87588699999998,1990/09/01 00:00,1990,1.117535890402083,1.4363636363636365,652161600.0,09/01/90,11.27720313144916
356,22000,"116 FOUGERON, Buffalo",42.9084717,-78.8346588,1990/09/01 00:00,1990,0.3112125264410863,0.4,652161600.0,09/01/90,9.998797732340453
357,87000,"306 LEXINGTON, Buffalo",42.9130301,-78.88145440000002,1990/09/01 00:00,1990,1.2307040818352049,1.5818181818181818,652161600.0,09/01/90,11.37366339763672
358,28000,"13 HARVEY, Buffalo",42.86653560000001,-78.85133619999998,1990/09/01 00:00,1990,0.396088670015928,0.509090909090909,652161600.0,09/01/90,10.239959789157341
359,15000,"243 KEHR, Buffalo",42.911802,-78.832089,1990/09/01 00:00,1990,0.21219035893710428,0.2727272727272727,652161600.0,09/01/90,9.615805480084347
360,70000,"42 TRACY, Buffalo",42.8932014,-78.8779057,1990/09/01 00:00,1990,0.99022167503982,1.2727272727272727,652161600.0,09/01/90,11.156250521031495
361,105000,"498 ASHLAND, Buffalo",42.918416,-78.878939,1990/09/01 00:00,1990,1.48533251255973,1.9090909090909087,652161600.0,09/01/90,11.56171562913966
362,25000,"73 METCALFE, Buffalo",42.880771,-78.83590400000001,1990/09/01 00:00,1990,0.35365059822850714,0.4545454545454545,652161600.0,09/01/90,10.126631103850338
363,32000,"110 GILBERT, Buffalo",42.875844,-78.8284205,1990/09/01 00:00,1990,0.4526727657324892,0.5818181818181818,652161600.0,09/01/90,10.373491181781864
364,137000,"692 AUBURN, Buffalo",42.91891079999999,-78.8749318,1990/09/01 00:00,1990,1.9380052782922192,2.4909090909090907,652161600.0,09/01/90,11.827736204810263
365,20000,"128 GITTERE, Buffalo",42.902898,-78.827302,1990/09/01 00:00,1990,0.2829204785828057,0.3636363636363637,652161600.0,09/01/90,9.903487552536127
366,63000,"120 CITY LINE, Buffalo",,,1990/09/01 00:00,1990,0.891199507535838,1.1454545454545455,652161600.0,09/01/90,11.05089000537367
367,43800,"2712 BAILEY, Buffalo",42.928523,-78.814036,1990/09/01 00:00,1990,0.6195958480963445,0.7963636363636364,652161600.0,09/01/90,10.687389096364537
368,68900,"313 OKELL, Buffalo",42.83775,-78.81893199999998,1990/09/01 00:00,1990,0.9746610487177656,1.2527272727272727,652161600.0,09/01/90,11.14041145700175
369,29000,"346 BARAGA, Buffalo",42.8554446,-78.83341999999998,1990/09/01 00:00,1990,0.4102346939450683,0.5272727272727272,652161600.0,09/01/90,10.275051108968611
370,62000,"199 COLGATE, Buffalo",42.8399086,-78.82485899999998,1990/09/01 00:00,1990,0.8770534836066978,1.1272727272727272,652161600.0,09/01/90,11.03488966402723
371,65000,"347 NEWBURGH, Buffalo",42.9242131,-78.80813289999998,1990/09/01 00:00,1990,0.9194915553941184,1.181818181818182,652161600.0,09/01/90,11.082142548877775
372,129000,"133 CHATHAM, Buffalo",42.9380481,-78.877563,1990/09/01 00:00,1990,1.8248370868590968,2.345454545454545,652161600.0,09/01/90,11.76756768334381
373,23000,"60 DEWEY, Buffalo",42.9315635,-78.8451875,1990/09/01 00:00,1990,0.3253585503702266,0.41818181818181815,652161600.0,09/01/90,10.043249494911286
374,42000,"515 BERKSHIRE, Buffalo",42.9409719,-78.80952679999999,1990/09/01 00:00,1990,0.5941330050238921,0.7636363636363637,652161600.0,09/01/90,10.645424897265505
375,165000,"149 ADMIRAL, Buffalo",42.9511854,-78.84611650000002,1990/09/01 00:00,1990,2.3340939483081478,3.0,652161600.0,09/01/90,12.013700752882718
376,34500,"36 DART, Buffalo",42.9287641,-78.89198909999998,1990/09/01 00:00,1990,0.4880378255553399,0.6272727272727273,652161600.0,09/01/90,10.448714603019452
377,51500,"206 STOCKBRIDGE, Buffalo",42.94183690000001,-78.81848740000002,1990/09/01 00:00,1990,0.7285202323507247,0.9363636363636364,652161600.0,09/01/90,10.849337086651827
378,60000,"19 ALBERT, Buffalo",42.9515079,-78.90111999999998,1990/09/01 00:00,1990,0.8487614357484171,1.0909090909090908,652161600.0,09/01/90,11.002099841204238
379,64900,"391 WINSPEAR, Buffalo",42.9487646,-78.81200489999998,1990/09/01 00:00,1990,0.9180769530012044,1.18,652161600.0,09/01/90,11.080602902692181
380,50000,"110 GEARY, Buffalo",42.8571156,-78.80952679999999,1990/09/01 00:00,1990,0.7073011964570143,0.9090909090909092,652161600.0,09/01/90,10.819778284410283
381,65000,"183 CAZENOVIA, Buffalo",42.8520504,-78.8077567,1990/09/01 00:00,1990,0.9194915553941184,1.181818181818182,652161600.0,09/01/90,11.082142548877775
382,48000,"166 FREUND, Buffalo",42.92179660000001,-78.80249049999998,1990/09/01 00:00,1990,0.6790091485987337,0.8727272727272727,652161600.0,09/01/90,10.778956289890028
383,19000,"914 SOUTH PARK, Buffalo",42.866463,-78.847786,1990/09/14 00:00,1990,0.26877445465366545,0.34545454545454546,653284800.0,09/14/90,9.852194258148577
384,35000,"38 GIBSON, Buffalo",42.88661,-78.83838,1990/10/01 00:00,1990,0.49511083751991,0.6363636363636364,654753600.0,10/01/90,10.46310334047155
385,115500,"40 MANCHESTER, Buffalo",42.9248383,-78.88269249999998,1990/10/01 00:00,1990,1.633865763815703,2.1,654753600.0,10/01/90,11.657025808943985
386,71000,"29 CULVER, Buffalo",42.83943960000001,-78.8225803,1990/10/01 00:00,1990,1.0043676989689605,1.2909090909090908,654753600.0,10/01/90,11.170435156023453
387,35900,"595 NORTHUMBERLAND, Buffalo",42.9310026,-78.82041219999998,1990/10/01 00:00,1990,0.5078422590561362,0.6527272727272727,654753600.0,10/01/90,10.48849257447637
388,100000,"63 CLAREMONT, Buffalo",42.9237791,-78.87955290000002,1990/10/01 00:00,1990,1.4146023929140286,1.818181818181818,654753600.0,10/01/90,11.512925464970229
389,48000,"46 ASHTON, Buffalo",42.8366326,-78.825412,1990/10/01 00:00,1990,0.6790091485987337,0.8727272727272727,654753600.0,10/01/90,10.778956289890028
390,13250,"432 LEROY, Buffalo",42.93293370000001,-78.82956300000002,1990/10/01 00:00,1990,0.1874348170611088,0.2409090909090909,654753600.0,10/01/90,9.491752831414368
391,76900,"498 DOWNING, Buffalo",42.8347607,-78.8052785,1990/10/01 00:00,1990,1.087829240150888,1.3981818181818182,654753600.0,10/01/90,11.250261155493735
392,105000,"273 POTTERS, Buffalo",42.8406813,-78.80349389999998,1990/10/01 00:00,1990,1.48533251255973,1.9090909090909087,654753600.0,10/01/90,11.56171562913966
393,85000,"71 ROSEMARY, Buffalo",42.95794129999999,-78.839171,1990/10/01 00:00,1990,1.2024120339769242,1.5454545454545454,654753600.0,10/01/90,11.350406535472453
394,79000,"37 EDEN, Buffalo",42.836147,-78.8223666,1990/10/01 00:00,1990,1.117535890402083,1.4363636363636365,654753600.0,10/01/90,11.27720313144916
395,75000,"61 HENLEY, Buffalo",42.9538677,-78.8470454,1990/10/01 00:00,1990,1.0609517946855214,1.3636363636363635,654753600.0,10/01/90,11.225243392518447
396,76000,"64 NARAGANSETT, Buffalo",42.8401145,-78.8055965,1990/10/01 00:00,1990,1.0750978186146618,1.3818181818181818,654753600.0,10/01/90,11.238488619268468
397,73000,"12 ZOLLARS, Buffalo",42.83526550000001,-78.82758000000003,1990/10/01 00:00,1990,1.032659746827241,1.3272727272727274,654753600.0,10/01/90,11.198214720130528
398,65000,"386 MARILLA, Buffalo",42.837492,-78.825907,1990/10/01 00:00,1990,0.9194915553941184,1.181818181818182,654753600.0,10/01/90,11.082142548877775
399,92000,"1705 HERTEL, Buffalo",42.947432,-78.84495249999998,1990/10/01 00:00,1990,1.3014342014809064,1.6727272727272726,654753600.0,10/01/90,11.429543856031177
400,82000,"382 OKELL, Buffalo",42.838203,-78.816503,1990/10/01 00:00,1990,1.1599739621895035,1.490909090909091,654753600.0,10/01/90,11.314474526246391
401,34900,"90 FEDERAL, Buffalo",42.9355179,-78.8262084,1990/10/01 00:00,1990,0.493696235126996,0.6345454545454545,654753600.0,10/01/90,10.460242108190519
402,87000,"220 ST LAWRENCE, Buffalo",42.95641,-78.8613574,1990/10/01 00:00,1990,1.2307040818352049,1.5818181818181818,654753600.0,10/01/90,11.37366339763672
403,71500,"319 DAVIDSON, Buffalo",42.937102,-78.80150959999997,1990/10/01 00:00,1990,1.0114407109335304,1.3,654753600.0,10/01/90,11.177452728682098
404,126900,"6 ARLINGTON, Buffalo",42.9009822,-78.8793318,1990/10/01 00:00,1990,1.7951304366079024,2.307272727272727,654753600.0,10/01/90,11.751154653702478
405,116000,"115 NORTH DR, Buffalo",42.950969,-78.84574119999998,1990/10/01 00:00,1990,1.6409387757802731,2.109090909090909,654753600.0,10/01/90,11.661345470088502
406,195000,"95 DANA, Buffalo",42.9392422,-78.86867409999998,1990/10/01 00:00,1990,2.758474666182356,3.5454545454545454,654753600.0,10/01/90,12.180754837545884
407,355000,"3428 BAILEY, Buffalo",42.9483105,-78.81406249999998,1990/10/01 00:00,1990,5.0218384948448005,6.454545454545454,654753600.0,10/01/90,12.779873068457553
408,54000,"157 LONGNECKER, Buffalo",42.8891988,-78.8083431,1990/10/01 00:00,1990,0.7638852921735755,0.9818181818181818,654753600.0,10/01/90,10.896739325546411
409,77900,"16 RAMONA, Buffalo",42.8412408,-78.81412890000001,1990/10/01 00:00,1990,1.1019752640800282,1.4163636363636365,654753600.0,10/01/90,11.26318123185884
410,54000,"111 DAVIDSON, Buffalo",42.93711920000001,-78.80930550000002,1990/10/01 00:00,1990,0.7638852921735755,0.9818181818181818,654753600.0,10/01/90,10.896739325546411
411,54000,"46 VERNON, Buffalo",42.9390842,-78.840974,1990/10/01 00:00,1990,0.7638852921735755,0.9818181818181818,654753600.0,10/01/90,10.896739325546411
412,21000,"34 MONTANA, Buffalo",42.9109568,-78.8205892,1990/10/01 00:00,1990,0.29706650251194605,0.3818181818181817,654753600.0,10/01/90,9.95227771670556
413,27500,"125 ZENNER, Buffalo",42.915344,-78.81543099999998,1990/10/01 00:00,1990,0.38901565805135785,0.5,654753600.0,10/01/90,10.221941283654663
414,89900,"165 DORCHESTER, Buffalo",42.9233706,-78.88439489999998,1990/10/01 00:00,1990,1.2717275512297117,1.6345454545454543,654753600.0,10/01/90,11.406453220459712
415,53000,"361 PROSPECT, Buffalo",42.898065,-78.8871585,1990/10/01 00:00,1990,0.7497392682444352,0.9636363636363636,654753600.0,10/01/90,10.87804719253426
416,65000,"35 PUTNAM ST, Buffalo",42.9179419,-78.884096,1990/10/01 00:00,1990,0.9194915553941184,1.181818181818182,654753600.0,10/01/90,11.082142548877775
417,80000,"23 LAKEWOOD, Buffalo",42.8527305,-78.8226688,1990/10/01 00:00,1990,1.131681914331223,1.4545454545454546,654753600.0,10/01/90,11.289781913656018
418,40000,"178 MILLICENT, Buffalo",42.9353089,-78.8069359,1990/10/01 00:00,1990,0.5658409571656114,0.7272727272727273,654753600.0,10/01/90,10.596634733096073
419,55000,"566 FARGO, Buffalo",42.91085349999999,-78.8979911,1990/10/01 00:00,1990,0.7780313161027157,1.0,654753600.0,10/01/90,10.915088464214607
420,29000,"68 HALBERT, Buffalo",42.93208970000001,-78.8421352,1990/10/01 00:00,1990,0.4102346939450683,0.5272727272727272,654753600.0,10/01/90,10.275051108968611
421,66000,"57 EDGEWOOD, Buffalo",42.8478888,-78.81629710000001,1990/10/01 00:00,1990,0.9336375793232587,1.2,654753600.0,10/01/90,11.097410021008562
422,50000,"54 NORMAN, Buffalo",42.855716,-78.80735299999998,1990/10/01 00:00,1990,0.7073011964570143,0.9090909090909092,654753600.0,10/01/90,10.819778284410283
423,66000,"223 GEARY, Buffalo",42.8588729,-78.8059866,1990/10/01 00:00,1990,0.9336375793232587,1.2,654753600.0,10/01/90,11.097410021008562
424,52000,"991 LAFAYETTE AVE, Buffalo",42.920464,-78.86146509999998,1990/10/01 00:00,1990,0.7355932443152948,0.9454545454545454,654753600.0,10/01/90,10.858998997563564
425,48000,"273 NEWFIELD, Buffalo",42.9623771,-78.9012628,1990/10/01 00:00,1990,0.6790091485987337,0.8727272727272727,654753600.0,10/01/90,10.778956289890028
426,75000,"18 HARRIETT, Buffalo",42.9233422,-78.80368539999998,1990/11/01 00:00,1990,1.0609517946855214,1.3636363636363635,657435600.0,11/01/90,11.225243392518447
427,29000,"77 KOSCIUSZKO, Buffalo",42.896862,-78.830596,1990/11/01 00:00,1990,0.4102346939450683,0.5272727272727272,657435600.0,11/01/90,10.275051108968611
428,48000,"264 BERKSHIRE, Buffalo",42.9411244,-78.8158325,1990/11/01 00:00,1990,0.6790091485987337,0.8727272727272727,657435600.0,11/01/90,10.778956289890028
429,45000,"240 ROSLYN, Buffalo",42.92106500000001,-78.80992509999999,1990/11/01 00:00,1990,0.6365710768113129,0.8181818181818182,657435600.0,11/01/90,10.714417768752456
430,159500,"315 MIDDLESEX, Buffalo",42.937148,-78.87681119999998,1990/11/01 00:00,1990,2.2562908166978755,2.9,657435600.0,11/01/90,11.979799201207037
431,59000,"330 WILLETT, Buffalo",42.8711643,-78.80324279999998,1990/11/01 00:00,1990,0.8346154118192769,1.0727272727272728,657435600.0,11/01/90,10.985292722887856
432,55000,"1616 BAILEY, Buffalo",42.89835520000001,-78.81423889999998,1990/11/01 00:00,1990,0.7780313161027157,1.0,657435600.0,11/01/90,10.915088464214607
433,69900,"86 LOCUST, Buffalo",42.8961888,-78.86157399999998,1990/11/01 00:00,1990,0.9888070726469059,1.2709090909090908,657435600.0,11/01/90,11.154820928221902
434,86000,"15 DULUTH, Buffalo",42.95654310000001,-78.85060250000002,1990/11/01 00:00,1990,1.2165580579060646,1.5636363636363635,657435600.0,11/01/90,11.362102575235644
435,70000,"36 HEDLEY, Buffalo",42.9231184,-78.85253039999998,1990/11/01 00:00,1990,0.99022167503982,1.2727272727272727,657435600.0,11/01/90,11.156250521031495
436,61000,"360 LISBON, Buffalo",42.9472808,-78.81523519999998,1990/11/01 00:00,1990,0.8629074596775574,1.1090909090909091,657435600.0,11/01/90,11.018629143155449
437,60000,"38 BAYNES, Buffalo",42.9165494,-78.88592050000003,1990/11/01 00:00,1990,0.8487614357484171,1.0909090909090908,657435600.0,11/01/90,11.002099841204238
438,50000,"63 HAZELWOOD, Buffalo",42.92086690000001,-78.8056325,1990/11/01 00:00,1990,0.7073011964570143,0.9090909090909092,657435600.0,11/01/90,10.819778284410283
439,35000,"35 FEDERAL, Buffalo",42.9340469,-78.825766,1990/11/01 00:00,1990,0.49511083751991,0.6363636363636364,657435600.0,11/01/90,10.46310334047155
440,41000,"1979 BAILEY, Buffalo",42.9084115,-78.8135308,1990/11/01 00:00,1990,0.5799869810947518,0.7454545454545455,657435600.0,11/01/90,10.621327345686446
441,50000,"556 SHIRLEY, Buffalo",42.9443693,-78.8039951,1990/11/01 00:00,1990,0.7073011964570143,0.9090909090909092,657435600.0,11/01/90,10.819778284410283
442,20100,"210 LANDON, Buffalo",42.9102919,-78.8460944,1990/11/01 00:00,1990,0.2843350809757197,0.3654545454545455,657435600.0,11/01/90,9.908475094047168
443,24900,"139 MOSELLE, Buffalo",42.9073465,-78.82399620000002,1990/11/01 00:00,1990,0.3522359958355931,0.4527272727272727,657435600.0,11/01/90,10.1226230824528
444,200000,"180 HUNTLEY, Buffalo",42.9482763,-78.80249049999998,1990/11/01 00:00,1990,2.829204785828057,3.636363636363636,657435600.0,11/01/90,12.206072645530174
445,44000,"22 MILLICENT, Buffalo",42.9353145,-78.81271290000002,1990/11/01 00:00,1990,0.6224250528821725,0.8,657435600.0,11/01/90,10.691944912900398
446,44000,"162 LAFAYETTE AVE, Buffalo",42.9203845,-78.89246440000002,1990/11/01 00:00,1990,0.6224250528821725,0.8,657435600.0,11/01/90,10.691944912900398
447,62800,"226 CARMEL, Buffalo",42.95379310000001,-78.83788829999997,1990/11/01 00:00,1990,0.8883703027500099,1.1418181818181818,657435600.0,11/01/90,11.04771035245629
448,73500,"134 ROMA, Buffalo",42.9265371,-78.8012292,1990/11/01 00:00,1990,1.0397327587918108,1.3363636363636364,657435600.0,11/01/90,11.205040685200927
449,185000,"1119 DELAWARE, Buffalo",42.914246,-78.868802,1990/11/01 00:00,1990,2.617014426890953,3.363636363636364,657435600.0,11/01/90,12.128111104060462
450,113500,"335 PARKER, Buffalo",42.948569,-78.83859090000001,1990/11/01 00:00,1990,1.6055737159574224,2.0636363636363635,657435600.0,11/01/90,11.639558115903595
451,62000,"21 MELROSE, Buffalo",42.8536751,-78.81850959999998,1990/11/01 00:00,1990,0.8770534836066978,1.1272727272727272,657435600.0,11/01/90,11.03488966402723
452,44900,"546 SUFFOLK, Buffalo",42.9377428,-78.8106774,1990/11/01 00:00,1990,0.6351564744183988,0.8163636363636364,657435600.0,11/01/90,10.712193073730345
453,56000,"47 SAGE, Buffalo",42.8616037,-78.8153679,1990/11/01 00:00,1990,0.792177340031856,1.018181818181818,657435600.0,11/01/90,10.933106969717286
454,57500,"387 DAVEY, Buffalo",42.895494,-78.803083,1990/12/01 00:00,1990,0.8133963759255665,1.0454545454545454,660027600.0,12/01/90,10.959540226785442
455,10226,"217 JEWETT AVE, Buffalo",42.93343400000001,-78.836146,1990/12/01 00:00,1990,0.14465724069938854,0.18592727272727272,660027600.0,12/01/90,9.232688775639945
456,69000,"29 HAYDEN, Buffalo",42.8577067,-78.8109429,1990/12/01 00:00,1990,0.9760756511106796,1.2545454545454546,660027600.0,12/01/90,11.141861783579396
457,57000,"297 WILLETT, Buffalo",42.87025999999999,-78.80284449999998,1990/12/01 00:00,1990,0.8063233639609964,1.0363636363636364,660027600.0,12/01/90,10.950806546816688
458,54000,"1893 CLINTON, Buffalo",42.871665,-78.80650659999998,1990/12/01 00:00,1990,0.7638852921735755,0.9818181818181818,660027600.0,12/01/90,10.896739325546411
459,78000,"203 MARIEMONT, Buffalo",42.8409199,-78.815995,1990/12/01 00:00,1990,1.1033898664729422,1.4181818181818182,660027600.0,12/01/90,11.26446410567173
460,65000,"26 KNOERL, Buffalo",42.856632,-78.81362709999998,1990/12/01 00:00,1990,0.9194915553941184,1.181818181818182,660027600.0,12/01/90,11.082142548877775
461,57500,"85 ZELMER, Buffalo",42.91220560000001,-78.8069601,1990/12/01 00:00,1990,0.8133963759255665,1.0454545454545454,660027600.0,12/01/90,10.959540226785442
462,40000,"816 BROADWAY, Buffalo",42.892244,-78.844146,1990/12/01 00:00,1990,0.5658409571656114,0.7272727272727273,660027600.0,12/01/90,10.596634733096073
463,60000,"84 SIXTEENTH, Buffalo",42.9065432,-78.884008,1990/12/01 00:00,1990,0.8487614357484171,1.0909090909090908,660027600.0,12/01/90,11.002099841204238
464,70900,"141 ORLEANS, Buffalo",42.9378119,-78.8064291,1990/12/01 00:00,1990,1.0029530965760465,1.2890909090909093,660027600.0,12/01/90,11.169025712520218
465,149008,"38 ST JOHNS PL, Buffalo",42.9002359,-78.88207340000002,1990/12/01 00:00,1990,2.1078707336333355,2.7092363636363634,660027600.0,12/01/90,11.91175527476144
466,54500,"9 NORTH PARK, Buffalo",42.9448678,-78.8555825,1990/12/01 00:00,1990,0.7709583041381456,0.990909090909091,660027600.0,12/01/90,10.905955980651335
467,132000,"104 COVINGTON, Buffalo",42.9532335,-78.84288719999998,1990/12/01 00:00,1990,1.8672751586465175,2.4,660027600.0,12/01/90,11.790557201568507
468,20000,"65 RICKERT, Buffalo",42.9181518,-78.840233,1990/12/01 00:00,1990,0.2829204785828057,0.3636363636363637,660027600.0,12/01/90,9.903487552536127
469,89000,"25 WELLINGTON, Buffalo",42.9451092,-78.85115920000001,1990/12/01 00:00,1990,1.2589961296934855,1.6181818181818182,660027600.0,12/01/90,11.396391648714276
470,70500,"115 GROVE, Buffalo",42.9510308,-78.88317889999998,1990/12/01 00:00,1990,0.9972946870043902,1.2818181818181815,660027600.0,12/01/90,11.16336798880036
471,40000,"65 NEWBURGH, Buffalo",42.9164629,-78.80859749999998,1990/12/01 00:00,1990,0.5658409571656114,0.7272727272727273,660027600.0,12/01/90,10.596634733096073
472,35000,"363 CORNWALL, Buffalo",42.9247716,-78.82160689999998,1990/12/01 00:00,1990,0.49511083751991,0.6363636363636364,660027600.0,12/01/90,10.46310334047155
473,55010,"88 DOYLE, Buffalo",42.9625915,-78.8957805,1990/12/01 00:00,1990,0.7781727763420071,1.0001818181818185,660027600.0,12/01/90,10.915270265869504
474,45000,"69 COURTLAND, Buffalo",42.9214846,-78.80656189999998,1990/12/01 00:00,1990,0.6365710768113129,0.8181818181818182,660027600.0,12/01/90,10.714417768752456
475,74000,"55 SHOREHAM, Buffalo",42.949966,-78.870947,1990/12/01 00:00,1990,1.0468057707563811,1.3454545454545457,660027600.0,12/01/90,11.211820372186306
476,66000,"173 FLOSS, Buffalo",42.92095870000001,-78.804659,1990/12/01 00:00,1990,0.9336375793232587,1.2,660027600.0,12/01/90,11.097410021008562
477,107000,"315 UTICA WEST, Buffalo",42.911511,-78.8782263,1990/12/01 00:00,1990,1.5136245604180103,1.945454545454545,660027600.0,12/01/90,11.580584113444043
478,60000,"187 NEWFIELD, Buffalo",42.9606921,-78.899008,1990/12/01 00:00,1990,0.8487614357484171,1.0909090909090908,660027600.0,12/01/90,11.002099841204238
479,66000,"424 WINSPEAR, Buffalo",42.9491234,-78.8108192,1990/12/01 00:00,1990,0.9336375793232587,1.2,660027600.0,12/01/90,11.097410021008562
480,65000,"572 GENESEE, Buffalo",42.896066,-78.855041,1990/12/01 00:00,1990,0.9194915553941184,1.181818181818182,660027600.0,12/01/90,11.082142548877775
481,69000,"397 WINSPEAR, Buffalo",42.9487428,-78.81178359999998,1990/12/01 00:00,1990,0.9760756511106796,1.2545454545454546,660027600.0,12/01/90,11.141861783579396
482,35000,"246 ROTHER, Buffalo",42.9006789,-78.832026,1990/12/01 00:00,1990,0.49511083751991,0.6363636363636364,660027600.0,12/01/90,10.46310334047155
483,54000,"93 ULLMAN, Buffalo",42.960217,-78.90461169999998,1990/12/01 00:00,1990,0.7638852921735755,0.9818181818181818,660027600.0,12/01/90,10.896739325546411
484,66000,"102 FORMAN, Buffalo",42.9124133,-78.81058879999998,1990/12/01 00:00,1990,0.9336375793232587,1.2,660027600.0,12/01/90,11.097410021008562
485,42000,"271 MARYLAND, Buffalo",42.896543,-78.88274899999998,1990/12/01 00:00,1990,0.5941330050238921,0.7636363636363637,660027600.0,12/01/90,10.645424897265505
486,63000,"510 WINSPEAR, Buffalo",42.9491166,-78.80757969999998,1990/12/01 00:00,1990,0.891199507535838,1.1454545454545455,660027600.0,12/01/90,11.05089000537367
487,80500,"1910 DELAWARE, Buffalo",42.9359393,-78.86717039999998,1990/12/01 00:00,1990,1.138754926295793,1.4636363636363636,660027600.0,12/01/90,11.296012463406655
488,48000,"457 FARGO, Buffalo",42.9085426,-78.8951173,1990/12/01 00:00,1990,0.6790091485987337,0.8727272727272727,660027600.0,12/01/90,10.778956289890028
489,246193,"75 OJIBWA, Buffalo",42.884581,-78.8864305,1990/12/01 00:00,1990,3.4826520691868343,4.476236363636363,660027600.0,12/01/90,12.41387106015932
490,34000,"158 BURGARD, Buffalo",42.90911,-78.81508699999998,1990/12/01 00:00,1990,0.4809648135907697,0.6181818181818182,660027600.0,12/01/90,10.4341158035983
491,311000,"56 CHAPIN, Buffalo",42.9218789,-78.870099,1990/12/01 00:00,1990,4.399413441962629,5.654545454545453,660027600.0,12/01/90,12.647548191161372
492,69900,"49 LEMON, Buffalo",42.89565560000001,-78.8601588,1990/12/01 00:00,1990,0.9888070726469059,1.2709090909090908,660027600.0,12/01/90,11.154820928221902
493,118000,"1400 BROADWAY, Buffalo",42.8960579,-78.823021,1990/12/01 00:00,1990,1.6692308236385538,2.145454545454545,660027600.0,12/01/90,11.678439903447801
494,60000,"159 GRIDER, Buffalo",42.9189945,-78.82886309999998,1990/12/11 00:00,1990,0.8487614357484171,1.0909090909090908,660891600.0,12/11/90,11.002099841204238
495,40000,"11 HERMAN, Buffalo",42.8923138,-78.8443581,1990/12/31 00:00,1990,0.5658409571656114,0.7272727272727273,662619600.0,12/31/90,10.596634733096073
496,100000,"105 WILLIAM, Buffalo",42.8845594,-78.8666858,1991/01/07 00:00,1991,1.3839816152789757,2.063983488132095,663224400.0,01/07/91,11.512925464970229
497,36100,"474 BRECKENRIDGE, Buffalo",42.9170771,-78.8840191,1991/02/01 00:00,1991,0.4996173631157102,0.7450980392156863,665384400.0,02/01/91,10.494048144320972
498,59000,"90 FOLGER, Buffalo",42.8495751,-78.82806670000002,1991/02/01 00:00,1991,0.8165491530145956,1.217750257997936,665384400.0,02/01/91,10.985292722887856
499,35000,"116 GILLETTE, Buffalo",42.924798,-78.8443913,1991/02/01 00:00,1991,0.4843935653476414,0.7223942208462333,665384400.0,02/01/91,10.46310334047155
500,52000,"83 ERB, Buffalo",42.9204204,-78.7999679,1991/02/01 00:00,1991,0.7196704399450673,1.0732714138286894,665384400.0,02/01/91,10.858998997563564
501,46000,"28 WILKES, Buffalo",42.9235684,-78.804836,1991/02/01 00:00,1991,0.6366315430283288,0.9494324045407636,665384400.0,02/01/91,10.736396675471232
502,68000,"192 RIDGEWOOD, Buffalo",42.8389262,-78.8166069,1991/02/01 00:00,1991,0.9411074983897034,1.4035087719298245,665384400.0,02/01/91,11.127262984158243
503,60258,"337 LISBON, Buffalo",42.9468842,-78.81616439999998,1991/02/01 00:00,1991,0.8339596417348051,1.2437151702786378,665384400.0,02/01/91,11.006390622621394
504,124250,"2046 FILLMORE, Buffalo",42.9295711,-78.8396358,1991/02/01 00:00,1991,1.7195971569841269,2.564499484004128,665384400.0,02/01/91,11.730050943958876
505,68000,"31 RUSPIN, Buffalo",42.9313189,-78.812381,1991/02/01 00:00,1991,0.9411074983897034,1.4035087719298245,665384400.0,02/01/91,11.127262984158243
506,47000,"183 HAMPSHIRE, Buffalo",42.911593,-78.8944099,1991/02/01 00:00,1991,0.6504713591811185,0.9700722394220846,665384400.0,02/01/91,10.757902880692196
507,38963,"110 ANDOVER, Buffalo",42.93418579999999,-78.81421739999998,1991/02/01 00:00,1991,0.5392407567611472,0.8041898864809082,665384400.0,02/01/91,10.570367756845354
508,43978,"25 EASTON, Buffalo",42.92734229999999,-78.81262439999998,1991/02/01 00:00,1991,0.6086474347673879,0.9076986584107328,665384400.0,02/01/91,10.691444787858716
509,25000,"26 ROEHRER, Buffalo",42.9046501,-78.8493014,1991/02/01 00:00,1991,0.34599540381974386,0.5159958720330238,665384400.0,02/01/91,10.126631103850338
510,59945,"118 PECKHAM, Buffalo",42.887949,-78.84969040000001,1991/02/01 00:00,1991,0.8296277792789819,1.2372549019607844,665384400.0,02/01/91,11.001182754141754
511,37900,"277 OLYMPIC, Buffalo",42.9300665,-78.8181556,1991/02/01 00:00,1991,0.5245290321907318,0.7822497420020641,665384400.0,02/01/91,10.542706391070517
512,175000,"477 ASHLAND, Buffalo",42.91794609999999,-78.87831469999998,1991/02/01 00:00,1991,2.421967826738207,3.6119711042311664,665384400.0,02/01/91,12.072541252905651
513,31000,"37 WALDEN, Buffalo",42.9033646,-78.83470299999998,1991/02/01 00:00,1991,0.4290343007364824,0.6398348813209495,665384400.0,02/01/91,10.341742483467284
514,31000,"414 SEVENTH, Buffalo",42.8964274,-78.8896342,1991/02/01 00:00,1991,0.4290343007364824,0.6398348813209495,665384400.0,02/01/91,10.341742483467284
515,29000,"310 WOLTZ, Buffalo",42.9023415,-78.83576479999998,1991/02/01 00:00,1991,0.4013546684309029,0.5985552115583075,665384400.0,02/01/91,10.275051108968611
516,38000,"31 NINETEENTH, Buffalo",42.9130666,-78.88498729999998,1991/02/01 00:00,1991,0.5259130138060107,0.7843137254901961,665384400.0,02/01/91,10.545341438708522
517,25000,"1906 GENESEE, Buffalo",42.9136786,-78.81160659999998,1991/02/01 00:00,1991,0.34599540381974386,0.5159958720330238,665384400.0,02/01/91,10.126631103850338
518,39000,"33 FLOSS, Buffalo",42.9171307,-78.80470319999998,1991/02/01 00:00,1991,0.5397528299588005,0.8049535603715171,665384400.0,02/01/91,10.571316925111784
519,93000,"331 NORTH PARK, Buffalo",42.9537175,-78.8554498,1991/02/01 00:00,1991,1.2871029022094471,1.9195046439628485,665384400.0,02/01/91,11.440354772135393
520,46000,"297 FIFTEENTH, Buffalo",42.91225900000001,-78.8901829,1991/02/01 00:00,1991,0.6366315430283288,0.9494324045407636,665384400.0,02/01/91,10.736396675471232
521,29000,"17 GOULDING, Buffalo",42.915259000000006,-78.851523,1991/02/01 00:00,1991,0.4013546684309029,0.5985552115583075,665384400.0,02/01/91,10.275051108968611
522,83000,"187 MERRIMAC, Buffalo",42.9544252,-78.8313407,1991/02/01 00:00,1991,1.1487047406815498,1.7131062951496387,665384400.0,02/01/91,11.326595886778735
523,105000,"185 NORWOOD, Buffalo",42.9099556,-78.87999509999999,1991/02/01 00:00,1991,1.4531806960429243,2.1671826625387,665384400.0,02/01/91,11.56171562913966
524,24594,"940 GLENWOOD, Buffalo",42.91226349999999,-78.8302671,1991/02/01 00:00,1991,0.34037643846171123,0.5076160990712074,665384400.0,02/01/91,10.110257789732392
525,53000,"307 FENTON, Buffalo",42.8709367,-78.80474749999998,1991/02/01 00:00,1991,0.733510256097857,1.0939112487100102,665384400.0,02/01/91,10.87804719253426
526,45000,"283 RHODE ISLAND, Buffalo",42.9091056,-78.89002159999998,1991/02/01 00:00,1991,0.622791726875539,0.9287925696594428,665384400.0,02/01/91,10.714417768752456
527,30000,"350 AUSTIN, Buffalo",42.9415495,-78.89259709999997,1991/02/01 00:00,1991,0.4151944845836927,0.6191950464396285,665384400.0,02/01/91,10.308952660644293
528,44500,"156 OXFORD, Buffalo",42.9196652,-78.8644283,1991/02/01 00:00,1991,0.6158718187991441,0.9184726522187824,665384400.0,02/01/91,10.703244468154331
529,73000,"410 HINMAN, Buffalo",42.9564571,-78.88490340000001,1991/02/01 00:00,1991,1.010306579153652,1.5067079463364292,665384400.0,02/01/91,11.198214720130528
530,25000,"1027 LAFAYETTE AVE, Buffalo",42.9205495,-78.8601192,1991/02/01 00:00,1991,0.34599540381974386,0.5159958720330238,665384400.0,02/01/91,10.126631103850338
531,36600,"303 PENNSYLVANIA, Buffalo",42.9000911,-78.88481500000002,1991/02/01 00:00,1991,0.506537271192105,0.7554179566563467,665384400.0,02/01/91,10.507803519389457
532,42000,"330 NORMAL, Buffalo",42.9086576,-78.89091690000002,1991/02/01 00:00,1991,0.5812722784171698,0.8668730650154799,665384400.0,02/01/91,10.645424897265505
533,32000,"18 BRUNSWICK, Buffalo",42.917197,-78.85327199999998,1991/02/28 00:00,1991,0.4428741168892722,0.6604747162022704,667717200.0,02/28/91,10.373491181781864
534,84000,"116 JOHNSON PK, Buffalo",42.8930681,-78.88045600000002,1991/03/01 00:00,1991,1.1625445568343395,1.7337461300309598,667803600.0,03/01/91,11.33857207782545
535,61500,"131 SPANN, Buffalo",42.8714281,-78.81125259999997,1991/03/01 00:00,1991,0.85114869339657,1.2693498452012384,667803600.0,03/01/91,11.02679245379461
536,62800,"35 MONTROSE, Buffalo",42.9552339,-78.8262084,1991/03/01 00:00,1991,0.8691404543951966,1.2961816305469556,667803600.0,03/01/91,11.04771035245629
537,66500,"67 WINSPEAR WEST, Buffalo",42.951813,-78.828265,1991/03/01 00:00,1991,0.9203477741605188,1.3725490196078431,667803600.0,03/01/91,11.104957226643945
538,80000,"23 ADMIRAL, Buffalo",42.9483595,-78.8479301,1991/03/01 00:00,1991,1.1071852922231804,1.6511867905056758,667803600.0,03/01/91,11.289781913656018
539,76000,"47 PAVONIA, Buffalo",42.94548959999999,-78.8868048,1991/03/01 00:00,1991,1.0518260276120217,1.568627450980392,667803600.0,03/01/91,11.238488619268468
540,42000,"55 ERICSON, Buffalo",42.9202758,-78.81230359999998,1991/03/01 00:00,1991,0.5812722784171698,0.8668730650154799,667803600.0,03/01/91,10.645424897265505
541,100310,"218 VIRGINIA ST, Buffalo",42.8944131,-78.88326740000002,1991/03/01 00:00,1991,1.3882719582863403,2.0703818369453044,667803600.0,03/01/91,11.51602066987753
542,157000,"414 STARIN, Buffalo",42.9516973,-78.84432249999998,1991/03/01 00:00,1991,2.172851135987992,3.240454076367389,667803600.0,03/01/91,11.964001084330445
543,30000,"1910 GENESEE, Buffalo",42.9137241,-78.81149599999998,1991/03/01 00:00,1991,0.4151944845836927,0.6191950464396285,667803600.0,03/01/91,10.308952660644293
544,48500,"106 WESTON, Buffalo",42.928486,-78.8097481,1991/03/01 00:00,1991,0.6712310834103031,1.001031991744066,667803600.0,03/01/91,10.789319076925574
545,48450,"269 SENECA, Buffalo",42.878713,-78.866489,1991/03/01 00:00,1991,0.6705390926026636,1.0,667803600.0,03/01/91,10.788287617318913
546,60625,"103 MERRIMAC, Buffalo",42.9534871,-78.828487,1991/03/01 00:00,1991,0.8390388542628789,1.2512899896800826,667803600.0,03/01/91,11.012462628239785
547,32000,"114 FLOSS, Buffalo",42.91924520000001,-78.80519,1991/03/01 00:00,1991,0.4428741168892722,0.6604747162022704,667803600.0,03/01/91,10.373491181781864
548,61900,"642 WEST, Buffalo",42.9084344,-78.89401190000002,1991/03/01 00:00,1991,0.8566846198576858,1.2776057791537667,667803600.0,03/01/91,11.033275458672687
549,65000,"725 LINWOOD AVE, Buffalo",42.9220325,-78.8644283,1991/03/01 00:00,1991,0.8995880499313341,1.3415892672858618,667803600.0,03/01/91,11.082142548877775
550,925000,"145 GOODELL, Buffalo",42.8940856,-78.8659596,1991/03/01 00:00,1991,12.801829941330526,19.09184726522188,667803600.0,03/01/91,13.737549016494562
551,42000,"377 MARYLAND, Buffalo",42.8982756,-78.8793318,1991/03/01 00:00,1991,0.5812722784171698,0.8668730650154799,667803600.0,03/01/91,10.645424897265505
552,82000,"819 AMHERST ST, Buffalo",42.940324,-78.8739245,1991/03/01 00:00,1991,1.13486492452876,1.6924664602683182,667803600.0,03/01/91,11.314474526246391
553,74000,"105 RUTLAND, Buffalo",42.8546532,-78.8154564,1991/03/01 00:00,1991,1.0241463953064418,1.5273477812177505,667803600.0,03/01/91,11.211820372186306
554,39900,"287 FIFTEENTH, Buffalo",42.9120332,-78.89007679999997,1991/03/01 00:00,1991,0.5522086644963112,0.8235294117647058,667803600.0,03/01/91,10.594131602877955
555,15000,"384 MOSELLE, Buffalo",42.914038,-78.824617,1991/03/22 00:00,1991,0.20759724229184634,0.30959752321981426,669618000.0,03/22/91,9.615805480084347
556,122000,"103 CROY, Buffalo",42.948151,-78.799154,1991/12/03 00:00,1991,1.6884575706403502,2.518059855521156,691736400.0,12/03/91,11.711776323715394
557,275000,"483 DELAWARE, Buffalo",42.8973579,-78.874128,1992/01/03 00:00,1992,3.610329190959857,4.417670682730924,694414800.0,01/03/92,12.524526376648708
558,45000,"38 VERONA, Buffalo",42.8559788,-78.83005759999998,1992/02/03 00:00,1992,0.5907811403388856,0.7228915662650602,697093200.0,02/03/92,10.714417768752456
559,95000,"42 COMMONWEALTH, Buffalo",42.9458242,-78.86226119999998,1992/02/27 00:00,1992,1.247204629604314,1.5261044176706828,699166800.0,02/27/92,11.461632170582678
560,14900,"90 TRINITY, Buffalo",42.8951354,-78.8790333,1992/03/06 00:00,1992,0.19561419980109768,0.2393574297188755,699858000.0,03/06/92,9.60911649193355
561,65900,"592 CLINTON, Buffalo",42.881897,-78.852471,1992/03/24 00:00,1992,0.8651661588518347,1.0586345381526103,701413200.0,03/24/92,11.095893720490599
562,25000,"220 MAURICE, Buffalo",42.8707927,-78.8368708,1992/03/31 00:00,1992,0.32821174463271424,0.4016064257028112,702018000.0,03/31/92,10.126631103850338
563,49000,"34 DUNLOP, Buffalo",42.9433987,-78.8229568,1992/04/03 00:00,1992,0.6432950194801199,0.7871485943775101,702277200.0,04/03/92,10.799575577092764
564,34900,"58 DECKER, Buffalo",42.9289915,-78.81614739999998,1992/04/13 00:00,1992,0.458183595507269,0.5606425702811245,703137600.0,04/13/92,10.460242108190519
565,72800,"70 ONEIDA, Buffalo",42.8825423,-78.84629,1992/04/13 00:00,1992,0.9557526003704638,1.1694779116465863,703137600.0,04/13/92,11.195471234184778
566,50000,"167 RYAN ST, Buffalo",42.85965570000001,-78.8062963,1992/04/13 00:00,1992,0.6564234892654285,0.8032128514056225,703137600.0,04/13/92,10.819778284410283
567,78000,"439 PARKSIDE, Buffalo",42.941881,-78.85016999999998,1992/04/15 00:00,1992,1.0240206432540684,1.2530120481927711,703310400.0,04/15/92,11.26446410567173
568,56000,"45 HEDLEY, Buffalo",42.92268,-78.852171,1992/04/15 00:00,1992,0.7351943079772798,0.8995983935742972,703310400.0,04/15/92,10.933106969717286
569,126000,"137 CHATHAM, Buffalo",42.9380402,-78.8777128,1992/04/15 00:00,1992,1.6541871929488796,2.0240963855421685,703310400.0,04/15/92,11.744037185933616
570,32000,"81 CHOATE, Buffalo",42.8443169,-78.82062990000001,1992/04/15 00:00,1992,0.4201110331298742,0.5140562248995983,703310400.0,04/15/92,10.373491181781864
571,69900,"413 HIGH, Buffalo",42.9000125,-78.8531718,1992/04/21 00:00,1992,0.9176800379930692,1.1228915662650605,703828800.0,04/21/92,11.154820928221902
572,147000,"38 LANCASTER, Buffalo",42.919178,-78.86962,1992/04/22 00:00,1992,1.9298850584403595,2.3614457831325297,703915200.0,04/22/92,11.898187865760873
573,88000,"136 OAKWOOD WEST, Buffalo",42.93404899999999,-78.8509823,1992/04/23 00:00,1992,1.155305341107154,1.4136546184738956,704001600.0,04/23/92,11.385092093460344
574,60000,"34 ECKHERT, Buffalo",42.9583991,-78.90435749999997,1992/04/24 00:00,1992,0.7877081871185141,0.9638554216867471,704088000.0,04/24/92,11.002099841204238
575,59225,"226 ROUNDS, Buffalo",42.94752889999999,-78.80519,1992/04/24 00:00,1992,0.7775336230349,0.95140562248996,704088000.0,04/24/92,10.989099029026987
576,78900,"58 ROANOKE, Buffalo",42.8604146,-78.81284570000003,1992/04/24 00:00,1992,1.035836266060846,1.2674698795180723,704088000.0,04/24/92,11.275936506833965
577,41000,"495 HOPKINS, Buffalo",42.8510206,-78.8320486,1992/04/28 00:00,1992,0.5382672611976513,0.6586345381526104,704433600.0,04/28/92,10.621327345686446
578,71000,"1883 HERTEL, Buffalo",42.9472896,-78.83819799999998,1992/04/28 00:00,1992,0.9321213547569084,1.1405622489959841,704433600.0,04/28/92,11.170435156023453
579,165000,"406 LAKEFRONT, Buffalo",42.88868859999999,-78.8896796,1992/04/28 00:00,1992,2.1661975145759143,2.6506024096385543,704433600.0,04/28/92,12.013700752882718
580,33000,"281 MAY, Buffalo",42.9081967,-78.8166069,1992/04/29 00:00,1992,0.4332395029151828,0.5301204819277109,704520000.0,04/29/92,10.404262840448617
581,16000,"675 BEST, Buffalo",42.90346900000001,-78.843186,1992/04/29 00:00,1992,0.2100555165649371,0.2570281124497992,704520000.0,04/29/92,9.680344001221918
582,78000,"31 HARDING, Buffalo",42.8402255,-78.8225361,1992/04/30 00:00,1992,1.0240206432540684,1.2530120481927711,704606400.0,04/30/92,11.26446410567173
583,95000,"51 HIGHLAND, Buffalo",42.9143058,-78.87165920000002,1992/04/30 00:00,1992,1.247204629604314,1.5261044176706828,704606400.0,04/30/92,11.461632170582678
584,45500,"34 BLAKE, Buffalo",42.91476220000001,-78.8111641,1992/04/30 00:00,1992,0.5973453752315399,0.7309236947791165,704606400.0,04/30/92,10.725467604939041
585,71000,"116 POMONA, Buffalo",42.8626933,-78.81306690000002,1992/05/01 00:00,1992,0.9321213547569084,1.1405622489959841,704692800.0,05/01/92,11.170435156023453
586,30000,"497 BUSTI, Buffalo",42.898276,-78.892122,1992/05/01 00:00,1992,0.39385409355925705,0.4819277108433735,704692800.0,05/01/92,10.308952660644293
587,69100,"595 CLINTON, Buffalo",42.881359,-78.8523979,1992/05/01 00:00,1992,0.907177262164822,1.1100401606425705,704692800.0,05/01/92,11.143310009755762
588,57000,"39 CRYSTAL, Buffalo",42.8457729,-78.8307213,1992/05/04 00:00,1992,0.7483227777625884,0.9156626506024096,704952000.0,05/04/92,10.950806546816688
589,59000,"238 HOWARD, Buffalo",42.88350519999999,-78.84527159999998,1992/05/05 00:00,1992,0.7745797173332055,0.9477911646586346,705038400.0,05/05/92,10.985292722887856
590,52500,"1436 DELAVAN EAST, Buffalo",42.92294450000001,-78.8036979,1992/05/05 00:00,1992,0.6892446637286999,0.8433734939759037,705038400.0,05/05/92,10.868568448579715
591,129000,"317 WINSPEAR, Buffalo",42.94867,-78.814604,1992/05/07 00:00,1992,1.6935726023048054,2.072289156626506,705211200.0,05/07/92,11.76756768334381
592,175000,"283 LAKEFRONT, Buffalo",42.886472,-78.888283,1992/05/07 00:00,1992,2.2974822124289997,2.8112449799196786,705211200.0,05/07/92,12.072541252905651
593,77000,"425 LEGION SOUTH, Buffalo",42.8536629,-78.81345379999998,1992/05/08 00:00,1992,1.0108921734687597,1.2369477911646587,705297600.0,05/08/92,11.251560700835821
594,94500,"29 OGDEN SOUTH, Buffalo",42.8619455,-78.80191909999998,1992/05/08 00:00,1992,1.2406403947116598,1.5180722891566265,705297600.0,05/08/92,11.456355113481834
595,49500,"60 PRINCETON, Buffalo",42.8540647,-78.81063309999998,1992/05/08 00:00,1992,0.6498592543727741,0.7951807228915663,705297600.0,05/08/92,10.809727948556782
596,74000,"85 ATHOL, Buffalo",42.8518534,-78.81262439999998,1992/05/08 00:00,1992,0.971506764112834,1.1887550200803212,705297600.0,05/08/92,11.211820372186306
597,74000,"72 VERNON, Buffalo",42.938991,-78.84188200000001,1992/05/08 00:00,1992,0.971506764112834,1.1887550200803212,705297600.0,05/08/92,11.211820372186306
598,76000,"316 WEST, Buffalo",42.90090479999999,-78.88698169999998,1992/05/11 00:00,1992,0.9977637036834512,1.2208835341365465,705556800.0,05/11/92,11.238488619268468
599,67500,"38 RICHFIELD, Buffalo",42.8463285,-78.8222263,1992/05/11 00:00,1992,0.8861717105083284,1.0843373493975903,705556800.0,05/11/92,11.119882876860622
600,32000,"190 BAITZ, Buffalo",42.8768993,-78.8247926,1992/05/11 00:00,1992,0.4201110331298742,0.5140562248995983,705556800.0,05/11/92,10.373491181781864
601,122333,"170 HUNTINGTON, Buffalo",42.9460021,-78.8386625,1992/05/12 00:00,1992,1.6060450942461528,1.9651887550200804,705643200.0,05/12/92,11.714502113569244
602,72800,"101 ONEIDA, Buffalo",42.8819076,-78.8450478,1992/05/12 00:00,1992,0.9557526003704638,1.1694779116465863,705643200.0,05/12/92,11.195471234184778
603,99900,"376 DORRANCE, Buffalo",42.8322225,-78.80930550000002,1992/05/13 00:00,1992,1.311534131552326,1.6048192771084338,705729600.0,05/13/92,11.511924964636645
604,15000,"476 SWEET, Buffalo",42.9028289,-78.83383,1992/05/14 00:00,1992,0.19692704677962847,0.24096385542168675,705816000.0,05/14/92,9.615805480084347
605,31000,"533 TONAWANDA, Buffalo",42.9436799,-78.9004276,1992/05/14 00:00,1992,0.4069825633445656,0.4979919678714859,705816000.0,05/14/92,10.341742483467284
606,82000,"286 NORWALK, Buffalo",42.9524672,-78.85476419999998,1992/05/14 00:00,1992,1.076534522395303,1.3172690763052208,705816000.0,05/14/92,11.314474526246391
607,440000,"583 STARIN, Buffalo",42.95651,-78.84334100000002,1992/05/15 00:00,1992,5.77652670553577,7.068273092369478,705902400.0,05/15/92,12.994530005894443
608,64000,"10 KOFLER, Buffalo",42.9551174,-78.88943569999998,1992/05/15 00:00,1992,0.8402220662597484,1.0281124497991967,705902400.0,05/15/92,11.06663836234181
609,440000,"575 STARIN, Buffalo",42.9561351,-78.8433738,1992/05/15 00:00,1992,5.77652670553577,7.068273092369478,705902400.0,05/15/92,12.994530005894443
610,45000,"96 GARVEY, Buffalo",42.8486354,-78.8285796,1992/05/18 00:00,1992,0.5907811403388856,0.7228915662650602,706161600.0,05/18/92,10.714417768752456
611,93000,"71 MCKINLEY PKWY, Buffalo",42.833868,-78.814615,1992/05/18 00:00,1992,1.2209476900336969,1.4939759036144578,706161600.0,05/18/92,11.440354772135393
612,35400,"109 ST JOSEPH, Buffalo",42.9034623,-78.8158547,1992/05/18 00:00,1992,0.4647478303999234,0.5686746987951807,706161600.0,05/18/92,10.474467099121865
613,84100,"40 NORTH DR, Buffalo",42.9500591,-78.8430642,1992/05/18 00:00,1992,1.1041043089444509,1.3510040160642571,706161600.0,05/18/92,11.33976184596104
614,29900,"114 NORMAL, Buffalo",42.9035719,-78.88628790000001,1992/05/18 00:00,1992,0.3925412465807262,0.4803212851405623,706161600.0,05/18/92,10.305613759378778
615,19000,"1003 WILLIAM, Buffalo",42.884713,-78.834133,1992/05/18 00:00,1992,0.2494409259208628,0.30522088353413657,706161600.0,05/18/92,9.852194258148577
616,84571,"221 DIVISION SOUTH, Buffalo",42.88101079999999,-78.8669935,1992/05/20 00:00,1992,1.1102878182133311,1.358570281124498,706334400.0,05/20/92,11.345346697230422
617,58500,"475 SHIRLEY, Buffalo",42.9439466,-78.8070577,1992/05/22 00:00,1992,0.7680154824405513,0.9397590361445785,706507200.0,05/22/92,10.976782033219948
618,60000,"186 STRATFORD, Buffalo",42.9521293,-78.8721678,1992/05/28 00:00,1992,0.7877081871185141,0.9638554216867471,707025600.0,05/28/92,11.002099841204238
619,15500,"6 POMEROY, Buffalo",42.86294470000001,-78.82134140000002,1992/05/28 00:00,1992,0.2034912816722828,0.24899598393574296,707025600.0,05/28/92,9.648595302907339
620,64000,"179 CRYSTAL, Buffalo",42.84571469999999,-78.8255448,1992/05/28 00:00,1992,0.8402220662597484,1.0281124497991967,707025600.0,05/28/92,11.06663836234181
621,10511,"26 HARMONIA, Buffalo",42.901079,-78.831008,1992/05/28 00:00,1992,0.13799334591337836,0.16885140562248996,707025600.0,05/28/92,9.260177606823355
622,15500,"8 POMEROY, Buffalo",42.86291800000001,-78.82146,1992/05/28 00:00,1992,0.2034912816722828,0.24899598393574296,707025600.0,05/28/92,9.648595302907339
623,80000,"34 FLOWER, Buffalo",42.95225809999999,-78.82992490000002,1992/05/29 00:00,1992,1.0502775828246855,1.285140562248996,707112000.0,05/29/92,11.289781913656018
624,20000,"168 CARLTON, Buffalo",42.898711,-78.86297900000002,1992/05/29 00:00,1992,0.2625693957061714,0.321285140562249,707112000.0,05/29/92,9.903487552536127
625,205000,"993 DELAWARE, Buffalo",42.9109675,-78.87000079999999,1992/05/29 00:00,1992,2.6913363059882567,3.2931726907630523,707112000.0,05/29/92,12.230765258120545
626,75000,"1075 WEST, Buffalo",42.91954260000001,-78.8965321,1992/05/30 00:00,1992,0.9846352338981428,1.2048192771084338,707198400.0,05/30/92,11.225243392518447
627,160000,"52 WHITNEY, Buffalo",42.89227899999999,-78.88105639999998,1992/06/01 00:00,1992,2.100555165649371,2.570281124497992,707371200.0,06/01/92,11.982929094215963
628,160000,"52 WHITNEY, Buffalo",42.89227899999999,-78.88105639999998,1992/06/01 00:00,1992,2.100555165649371,2.570281124497992,707371200.0,06/01/92,11.982929094215963
